[
   {
      "name": "aba north",
      "longitude": 7.39479,
      "latitude": 5.09386,
      "state": "abia stateAB",
      "geonameId": 7701336
   },
   {
      "name": "aba south",
      "longitude": 7.35,
      "latitude": 5.1,
      "state": "abia stateAB",
      "geonameId": 7701374
   },
   {
      "name": "arochukwu",
      "longitude": 7.7658,
      "latitude": 5.48569,
      "state": "abia stateAB",
      "geonameId": 8638389
   },
   {
      "name": "bende",
      "longitude": 7.58999,
      "latitude": 5.64971,
      "state": "abia stateAB",
      "geonameId": 8638388
   },
   {
      "name": "ikwuano",
      "longitude": 7.56667,
      "latitude": 5.43333,
      "state": "abia stateAB",
      "geonameId": 7701376
   },
   {
      "name": "isiala ngwa north local government area",
      "longitude": 7.41986,
      "latitude": 5.40305,
      "state": "abia stateAB",
      "geonameId": 9485480
   },
   {
      "name": "isiala ngwa south local government area",
      "longitude": 7.39233,
      "latitude": 5.32707,
      "state": "abia stateAB",
      "geonameId": 9485481
   },
   {
      "name": "isiala-ngwa north",
      "longitude": 7.39057,
      "latitude": 5.26783,
      "state": "abia stateAB",
      "geonameId": 7932087
   },
   {
      "name": "isiala-ngwa south",
      "longitude": 7.39998,
      "latitude": 5.36241,
      "state": "abia stateAB",
      "geonameId": 7730382
   },
   {
      "name": "isuikwuato",
      "longitude": 7.46446,
      "latitude": 5.76185,
      "state": "abia stateAB",
      "geonameId": 7873936
   },
   {
      "name": "obi nwga",
      "longitude": 7.45578,
      "latitude": 5.12713,
      "state": "abia stateAB",
      "geonameId": 7932088
   },
   {
      "name": "ohafia",
      "longitude": 7.76939,
      "latitude": 5.65835,
      "state": "abia stateAB",
      "geonameId": 7729963
   },
   {
      "name": "osisioma ngwa",
      "longitude": 7.33067,
      "latitude": 5.19934,
      "state": "abia stateAB",
      "geonameId": 8638391
   },
   {
      "name": "ugwunagbo",
      "longitude": 7.33943,
      "latitude": 5.00628,
      "state": "abia stateAB",
      "geonameId": 7730384
   },
   {
      "name": "ukwa east",
      "longitude": 7.36667,
      "latitude": 4.9,
      "state": "abia stateAB",
      "geonameId": 7701380
   },
   {
      "name": "ukwa west",
      "longitude": 7.23927,
      "latitude": 4.95401,
      "state": "abia stateAB",
      "geonameId": 7730386
   },
   {
      "name": "umu-nneochi",
      "longitude": 7.41034,
      "latitude": 5.93998,
      "state": "abia stateAB",
      "geonameId": 7932084
   },
   {
      "name": "umuahia north",
      "longitude": 7.46869,
      "latitude": 5.558,
      "state": "abia stateAB",
      "geonameId": 7932085
   },
   {
      "name": "umuahia south",
      "longitude": 7.43997,
      "latitude": 5.46234,
      "state": "abia stateAB",
      "geonameId": 7730388
   },
   {
      "name": "demsa",
      "longitude": 12.07802,
      "latitude": 9.35639,
      "state": "adamawaAD",
      "geonameId": 8659809
   },
   {
      "name": "fufore",
      "longitude": 12.79358,
      "latitude": 9.20243,
      "state": "adamawaAD",
      "geonameId": 7729966
   },
   {
      "name": "ganye",
      "longitude": 11.94566,
      "latitude": 8.36758,
      "state": "adamawaAD",
      "geonameId": 8659815
   },
   {
      "name": "girei",
      "longitude": 12.48094,
      "latitude": 9.42646,
      "state": "adamawaAD",
      "geonameId": 8659810
   },
   {
      "name": "gombi",
      "longitude": 12.52765,
      "latitude": 10.18948,
      "state": "adamawaAD",
      "geonameId": 8659803
   },
   {
      "name": "guyuk",
      "longitude": 11.92048,
      "latitude": 9.82348,
      "state": "adamawaAD",
      "geonameId": 8659806
   },
   {
      "name": "hong",
      "longitude": 12.92473,
      "latitude": 10.31016,
      "state": "adamawaAD",
      "geonameId": 8659801
   },
   {
      "name": "jada",
      "longitude": 12.31743,
      "latitude": 8.68875,
      "state": "adamawaAD",
      "geonameId": 8659814
   },
   {
      "name": "larmurde",
      "longitude": 11.71792,
      "latitude": 9.5705,
      "state": "adamawaAD",
      "geonameId": 8659807
   },
   {
      "name": "madagali",
      "longitude": 13.54889,
      "latitude": 10.85219,
      "state": "adamawaAD",
      "geonameId": 7729973
   },
   {
      "name": "maiha",
      "longitude": 13.2048,
      "latitude": 9.86975,
      "state": "adamawaAD",
      "geonameId": 8659802
   },
   {
      "name": "mayo-belwa",
      "longitude": 11.9768,
      "latitude": 8.97099,
      "state": "adamawaAD",
      "geonameId": 8659813
   },
   {
      "name": "michika",
      "longitude": 13.39772,
      "latitude": 10.58072,
      "state": "adamawaAD",
      "geonameId": 8659798
   },
   {
      "name": "mubi north",
      "longitude": 13.40646,
      "latitude": 10.3498,
      "state": "adamawaAD",
      "geonameId": 8659799
   },
   {
      "name": "mubi south",
      "longitude": 13.39576,
      "latitude": 10.1874,
      "state": "adamawaAD",
      "geonameId": 8659800
   },
   {
      "name": "numan",
      "longitude": 11.83665,
      "latitude": 9.45371,
      "state": "adamawaAD",
      "geonameId": 8659808
   },
   {
      "name": "shelleng",
      "longitude": 12.12668,
      "latitude": 9.94811,
      "state": "adamawaAD",
      "geonameId": 8659805
   },
   {
      "name": "song",
      "longitude": 12.62692,
      "latitude": 9.85468,
      "state": "adamawaAD",
      "geonameId": 8659804
   },
   {
      "name": "teungo",
      "longitude": 11.84249,
      "latitude": 7.9958,
      "state": "adamawaAD",
      "geonameId": 8659816
   },
   {
      "name": "yola north",
      "longitude": 12.25113,
      "latitude": 9.26628,
      "state": "adamawaAD",
      "geonameId": 8659811
   },
   {
      "name": "yola south",
      "longitude": 12.43618,
      "latitude": 9.25286,
      "state": "adamawaAD",
      "geonameId": 8659812
   },
   {
      "name": "abak",
      "longitude": 7.78738,
      "latitude": 5.02095,
      "state": "akwa ibom stateAK",
      "geonameId": 8638458
   },
   {
      "name": "eastern obolo",
      "longitude": 7.76694,
      "latitude": 4.53389,
      "state": "akwa ibom stateAK",
      "geonameId": 7730390
   },
   {
      "name": "eket",
      "longitude": 7.95365,
      "latitude": 4.63664,
      "state": "akwa ibom stateAK",
      "geonameId": 8638472
   },
   {
      "name": "esit eket",
      "longitude": 8.07058,
      "latitude": 4.63086,
      "state": "akwa ibom stateAK",
      "geonameId": 7701381
   },
   {
      "name": "essien udim",
      "longitude": 7.64533,
      "latitude": 5.10684,
      "state": "akwa ibom stateAK",
      "geonameId": 8638452
   },
   {
      "name": "etim ekpo",
      "longitude": 7.59247,
      "latitude": 4.978,
      "state": "akwa ibom stateAK",
      "geonameId": 8638454
   },
   {
      "name": "etinan",
      "longitude": 7.84464,
      "latitude": 4.81943,
      "state": "akwa ibom stateAK",
      "geonameId": 8638463
   },
   {
      "name": "ibeno",
      "longitude": 8.07258,
      "latitude": 4.56506,
      "state": "akwa ibom stateAK",
      "geonameId": 8638468
   },
   {
      "name": "ibesikpo asutan",
      "longitude": 7.95806,
      "latitude": 4.92735,
      "state": "akwa ibom stateAK",
      "geonameId": 8638457
   },
   {
      "name": "ibiono ibom",
      "longitude": 7.89309,
      "latitude": 5.20704,
      "state": "akwa ibom stateAK",
      "geonameId": 8638450
   },
   {
      "name": "ika",
      "longitude": 7.53411,
      "latitude": 5.00553,
      "state": "akwa ibom stateAK",
      "geonameId": 8638453
   },
   {
      "name": "ikono",
      "longitude": 7.79398,
      "latitude": 5.21035,
      "state": "akwa ibom stateAK",
      "geonameId": 8638448
   },
   {
      "name": "ikot abasi",
      "longitude": 7.6244,
      "latitude": 4.60581,
      "state": "akwa ibom stateAK",
      "geonameId": 8638465
   },
   {
      "name": "ikot ekpene",
      "longitude": 7.70369,
      "latitude": 5.19383,
      "state": "akwa ibom stateAK",
      "geonameId": 8638449
   },
   {
      "name": "ini",
      "longitude": 7.74884,
      "latitude": 5.40415,
      "state": "akwa ibom stateAK",
      "geonameId": 8638394
   },
   {
      "name": "itu",
      "longitude": 7.97788,
      "latitude": 5.14318,
      "state": "akwa ibom stateAK",
      "geonameId": 8638451
   },
   {
      "name": "mbo",
      "longitude": 8.25537,
      "latitude": 4.64325,
      "state": "akwa ibom stateAK",
      "geonameId": 8638469
   },
   {
      "name": "mkpat enin",
      "longitude": 7.74861,
      "latitude": 4.73361,
      "state": "akwa ibom stateAK",
      "geonameId": 7701382
   },
   {
      "name": "nsit atai",
      "longitude": 8.02593,
      "latitude": 4.8177,
      "state": "akwa ibom stateAK",
      "geonameId": 7730394
   },
   {
      "name": "nsit ibom",
      "longitude": 7.89309,
      "latitude": 4.90092,
      "state": "akwa ibom stateAK",
      "geonameId": 8638460
   },
   {
      "name": "nsit ubium",
      "longitude": 7.94876,
      "latitude": 4.74274,
      "state": "akwa ibom stateAK",
      "geonameId": 7730396
   },
   {
      "name": "obot akara",
      "longitude": 7.60458,
      "latitude": 5.24669,
      "state": "akwa ibom stateAK",
      "geonameId": 8638447
   },
   {
      "name": "okobo",
      "longitude": 8.13204,
      "latitude": 4.82714,
      "state": "akwa ibom stateAK",
      "geonameId": 8638478
   },
   {
      "name": "onna",
      "longitude": 7.84869,
      "latitude": 4.61597,
      "state": "akwa ibom stateAK",
      "geonameId": 7730397
   },
   {
      "name": "oron",
      "longitude": 8.23005,
      "latitude": 4.80291,
      "state": "akwa ibom stateAK",
      "geonameId": 8638479
   },
   {
      "name": "oruk anam",
      "longitude": 7.71667,
      "latitude": 4.9,
      "state": "akwa ibom stateAK",
      "geonameId": 7701383
   },
   {
      "name": "udung uko",
      "longitude": 8.26529,
      "latitude": 4.75226,
      "state": "akwa ibom stateAK",
      "geonameId": 8638474
   },
   {
      "name": "ukanafun",
      "longitude": 7.59687,
      "latitude": 4.89651,
      "state": "akwa ibom stateAK",
      "geonameId": 8638459
   },
   {
      "name": "uruan",
      "longitude": 8.06597,
      "latitude": 5.01104,
      "state": "akwa ibom stateAK",
      "geonameId": 8638456
   },
   {
      "name": "urue offong/oruko",
      "longitude": 8.16948,
      "latitude": 4.71702,
      "state": "akwa ibom stateAK",
      "geonameId": 8638475
   },
   {
      "name": "uyo",
      "longitude": 7.903,
      "latitude": 5.01874,
      "state": "akwa ibom stateAK",
      "geonameId": 8638455
   },
   {
      "name": "aguata",
      "longitude": 7.08124,
      "latitude": 5.99081,
      "state": "anambraAN",
      "geonameId": 8638035
   },
   {
      "name": "anambra east",
      "longitude": 6.81667,
      "latitude": 6.26667,
      "state": "anambraAN",
      "geonameId": 7701409
   },
   {
      "name": "anambra west",
      "longitude": 6.74968,
      "latitude": 6.35931,
      "state": "anambraAN",
      "geonameId": 7701530
   },
   {
      "name": "anaocha",
      "longitude": 6.9963,
      "latitude": 6.06824,
      "state": "anambraAN",
      "geonameId": 7701411
   },
   {
      "name": "awka north",
      "longitude": 7,
      "latitude": 6.33333,
      "state": "anambraAN",
      "geonameId": 7701412
   },
   {
      "name": "awka south",
      "longitude": 7.06778,
      "latitude": 6.20694,
      "state": "anambraAN",
      "geonameId": 7701413
   },
   {
      "name": "ayamelum",
      "longitude": 6.98694,
      "latitude": 6.55355,
      "state": "anambraAN",
      "geonameId": 8638032
   },
   {
      "name": "dunukofia",
      "longitude": 6.978,
      "latitude": 6.2738,
      "state": "anambraAN",
      "geonameId": 7932064
   },
   {
      "name": "ekwusigo",
      "longitude": 6.83992,
      "latitude": 5.98067,
      "state": "anambraAN",
      "geonameId": 8638042
   },
   {
      "name": "idemili north",
      "longitude": 6.93342,
      "latitude": 6.1285,
      "state": "anambraAN",
      "geonameId": 7701531
   },
   {
      "name": "idemili south",
      "longitude": 6.94992,
      "latitude": 6.04769,
      "state": "anambraAN",
      "geonameId": 7701532
   },
   {
      "name": "ihiala",
      "longitude": 6.85918,
      "latitude": 5.84683,
      "state": "anambraAN",
      "geonameId": 8638036
   },
   {
      "name": "njikoka",
      "longitude": 6.97655,
      "latitude": 6.1842,
      "state": "anambraAN",
      "geonameId": 7701533
   },
   {
      "name": "nnewi north",
      "longitude": 6.90177,
      "latitude": 5.99994,
      "state": "anambraAN",
      "geonameId": 8638038
   },
   {
      "name": "nnewi south",
      "longitude": 6.92306,
      "latitude": 5.93321,
      "state": "anambraAN",
      "geonameId": 7701534
   },
   {
      "name": "ogbaru",
      "longitude": 6.74459,
      "latitude": 6.01577,
      "state": "anambraAN",
      "geonameId": 7701535
   },
   {
      "name": "onitsha north",
      "longitude": 6.79968,
      "latitude": 6.16081,
      "state": "anambraAN",
      "geonameId": 7873887
   },
   {
      "name": "onitsha south",
      "longitude": 6.77736,
      "latitude": 6.1267,
      "state": "anambraAN",
      "geonameId": 8638046
   },
   {
      "name": "orumba north",
      "longitude": 7.08333,
      "latitude": 6.06667,
      "state": "anambraAN",
      "geonameId": 7701536
   },
   {
      "name": "orumba south",
      "longitude": 7.21667,
      "latitude": 5.96667,
      "state": "anambraAN",
      "geonameId": 7701537
   },
   {
      "name": "oyi",
      "longitude": 6.86187,
      "latitude": 6.1767,
      "state": "anambraAN",
      "geonameId": 7701538
   },
   {
      "name": "alkaleri",
      "longitude": 10.48004,
      "latitude": 9.88979,
      "state": "bauchiBA",
      "geonameId": 8634313
   },
   {
      "name": "bauchi",
      "longitude": 9.84417,
      "latitude": 10.31583,
      "state": "bauchiBA",
      "geonameId": 7729984
   },
   {
      "name": "bogoro",
      "longitude": 9.61667,
      "latitude": 9.65,
      "state": "bauchiBA",
      "geonameId": 7729988
   },
   {
      "name": "damban",
      "longitude": 10.78622,
      "latitude": 11.62592,
      "state": "bauchiBA",
      "geonameId": 8634291
   },
   {
      "name": "darazo",
      "longitude": 10.65399,
      "latitude": 11.16762,
      "state": "bauchiBA",
      "geonameId": 7729992
   },
   {
      "name": "dass",
      "longitude": 9.47803,
      "latitude": 10.01852,
      "state": "bauchiBA",
      "geonameId": 8634267
   },
   {
      "name": "gamawa",
      "longitude": 10.58616,
      "latitude": 12.073,
      "state": "bauchiBA",
      "geonameId": 8634305
   },
   {
      "name": "ganjuwa",
      "longitude": 9.99991,
      "latitude": 10.74916,
      "state": "bauchiBA",
      "geonameId": 8634288
   },
   {
      "name": "giade",
      "longitude": 10.28336,
      "latitude": 11.40646,
      "state": "bauchiBA",
      "geonameId": 8634289
   },
   {
      "name": "itas/gadau",
      "longitude": 10.04862,
      "latitude": 11.89382,
      "state": "bauchiBA",
      "geonameId": 8634303
   },
   {
      "name": "jama'are",
      "longitude": 9.91293,
      "latitude": 11.7216,
      "state": "bauchiBA",
      "geonameId": 8634293
   },
   {
      "name": "katagum",
      "longitude": 10.32696,
      "latitude": 11.7042,
      "state": "bauchiBA",
      "geonameId": 8634300
   },
   {
      "name": "kirfi",
      "longitude": 10.53223,
      "latitude": 10.39427,
      "state": "bauchiBA",
      "geonameId": 8634310
   },
   {
      "name": "misau",
      "longitude": 10.4703,
      "latitude": 11.3163,
      "state": "bauchiBA",
      "geonameId": 7729993
   },
   {
      "name": "ningi",
      "longitude": 9.20491,
      "latitude": 11.06228,
      "state": "bauchiBA",
      "geonameId": 8634264
   },
   {
      "name": "shira",
      "longitude": 10.01731,
      "latitude": 11.50415,
      "state": "bauchiBA",
      "geonameId": 8634290
   },
   {
      "name": "tafawa-balewa",
      "longitude": 9.5824,
      "latitude": 9.82542,
      "state": "bauchiBA",
      "geonameId": 8634314
   },
   {
      "name": "toro",
      "longitude": 9.22056,
      "latitude": 10.44646,
      "state": "bauchiBA",
      "geonameId": 8634266
   },
   {
      "name": "warji",
      "longitude": 9.73897,
      "latitude": 11.15796,
      "state": "bauchiBA",
      "geonameId": 8634265
   },
   {
      "name": "zaki",
      "longitude": 10.30889,
      "latitude": 12.29919,
      "state": "bauchiBA",
      "geonameId": 8634304
   },
   {
      "name": "brass",
      "longitude": 6.45462,
      "latitude": 4.36648,
      "state": "bayelsa stateBY",
      "geonameId": 8638097
   },
   {
      "name": "ekeremor",
      "longitude": 5.71647,
      "latitude": 4.92212,
      "state": "bayelsa stateBY",
      "geonameId": 8638070
   },
   {
      "name": "kolokuma/opokuma",
      "longitude": 6.264,
      "latitude": 5.09855,
      "state": "bayelsa stateBY",
      "geonameId": 8638091
   },
   {
      "name": "nembe",
      "longitude": 6.29442,
      "latitude": 4.52466,
      "state": "bayelsa stateBY",
      "geonameId": 8638095
   },
   {
      "name": "ogbia",
      "longitude": 6.32686,
      "latitude": 4.77409,
      "state": "bayelsa stateBY",
      "geonameId": 8638092
   },
   {
      "name": "sagbama",
      "longitude": 6.21127,
      "latitude": 5.14722,
      "state": "bayelsa stateBY",
      "geonameId": 8638073
   },
   {
      "name": "southern ijaw",
      "longitude": 5.94156,
      "latitude": 4.67675,
      "state": "bayelsa stateBY",
      "geonameId": 8638072
   },
   {
      "name": "yenegoa",
      "longitude": 6.35931,
      "latitude": 5.03163,
      "state": "bayelsa stateBY",
      "geonameId": 8638087
   },
   {
      "name": "ado",
      "longitude": 8.00541,
      "latitude": 6.79934,
      "state": "benue stateBE",
      "geonameId": 8659760
   },
   {
      "name": "agatu",
      "longitude": 7.85487,
      "latitude": 7.9061,
      "state": "benue stateBE",
      "geonameId": 7730398
   },
   {
      "name": "apa",
      "longitude": 7.87107,
      "latitude": 7.62962,
      "state": "benue stateBE",
      "geonameId": 8659758
   },
   {
      "name": "bukuru",
      "longitude": 9.2,
      "latitude": 7.46667,
      "state": "benue stateBE",
      "geonameId": 7729994
   },
   {
      "name": "buruku local government area",
      "longitude": 9.26074,
      "latitude": 7.36534,
      "state": "benue stateBE",
      "geonameId": 9485483
   },
   {
      "name": "gboko",
      "longitude": 8.90167,
      "latitude": 7.31616,
      "state": "benue stateBE",
      "geonameId": 7729995
   },
   {
      "name": "guma",
      "longitude": 8.76667,
      "latitude": 7.96667,
      "state": "benue stateBE",
      "geonameId": 7729904
   },
   {
      "name": "gwer east",
      "longitude": 8.48333,
      "latitude": 7.3,
      "state": "benue stateBE",
      "geonameId": 7729905
   },
   {
      "name": "gwer west",
      "longitude": 8.21656,
      "latitude": 7.63211,
      "state": "benue stateBE",
      "geonameId": 7730399
   },
   {
      "name": "katsina-ala",
      "longitude": 9.5533,
      "latitude": 7.2896,
      "state": "benue stateBE",
      "geonameId": 7932511
   },
   {
      "name": "konshisha",
      "longitude": 8.66037,
      "latitude": 7.02993,
      "state": "benue stateBE",
      "geonameId": 7730400
   },
   {
      "name": "kwande",
      "longitude": 9.47021,
      "latitude": 6.80099,
      "state": "benue stateBE",
      "geonameId": 7730000
   },
   {
      "name": "logo",
      "longitude": 9.25049,
      "latitude": 7.68922,
      "state": "benue stateBE",
      "geonameId": 7729906
   },
   {
      "name": "makurdi local government area",
      "longitude": 8.52296,
      "latitude": 7.73753,
      "state": "benue stateBE",
      "geonameId": 9485482
   },
   {
      "name": "markurdi",
      "longitude": 8.53588,
      "latitude": 7.7042,
      "state": "benue stateBE",
      "geonameId": 7932059
   },
   {
      "name": "obi",
      "longitude": 8.29392,
      "latitude": 7.02177,
      "state": "benue stateBE",
      "geonameId": 8659761
   },
   {
      "name": "ogbadibo",
      "longitude": 7.64989,
      "latitude": 7.08921,
      "state": "benue stateBE",
      "geonameId": 7729907
   },
   {
      "name": "ohimini",
      "longitude": 7.94989,
      "latitude": 7.20744,
      "state": "benue stateBE",
      "geonameId": 7932061
   },
   {
      "name": "oju",
      "longitude": 8.38201,
      "latitude": 6.8588,
      "state": "benue stateBE",
      "geonameId": 8659762
   },
   {
      "name": "okpokwu",
      "longitude": 7.85102,
      "latitude": 7.01094,
      "state": "benue stateBE",
      "geonameId": 7932062
   },
   {
      "name": "oturkpo",
      "longitude": 8.07494,
      "latitude": 7.30736,
      "state": "benue stateBE",
      "geonameId": 7932060
   },
   {
      "name": "tarka",
      "longitude": 8.88194,
      "latitude": 7.62081,
      "state": "benue stateBE",
      "geonameId": 8659759
   },
   {
      "name": "ukum",
      "longitude": 9.56356,
      "latitude": 7.64393,
      "state": "benue stateBE",
      "geonameId": 8659763
   },
   {
      "name": "ushongo",
      "longitude": 9.08871,
      "latitude": 7.04411,
      "state": "benue stateBE",
      "geonameId": 7730401
   },
   {
      "name": "vandeikya",
      "longitude": 9.05904,
      "latitude": 6.82814,
      "state": "benue stateBE",
      "geonameId": 7729908
   },
   {
      "name": "abadam",
      "longitude": 13.31319,
      "latitude": 13.43162,
      "state": "borno stateBO",
      "geonameId": 8659822
   },
   {
      "name": "askira-uba",
      "longitude": 12.8782,
      "latitude": 10.63582,
      "state": "borno stateBO",
      "geonameId": 8659842
   },
   {
      "name": "bama",
      "longitude": 14.09661,
      "latitude": 11.52059,
      "state": "borno stateBO",
      "geonameId": 8659838
   },
   {
      "name": "bayo",
      "longitude": 11.70624,
      "latitude": 10.42254,
      "state": "borno stateBO",
      "geonameId": 8659845
   },
   {
      "name": "biu",
      "longitude": 12.08845,
      "latitude": 10.81742,
      "state": "borno stateBO",
      "geonameId": 8659843
   },
   {
      "name": "chibok",
      "longitude": 12.7705,
      "latitude": 10.83642,
      "state": "borno stateBO",
      "geonameId": 8659841
   },
   {
      "name": "damboa",
      "longitude": 12.76417,
      "latitude": 11.09826,
      "state": "borno stateBO",
      "geonameId": 8659840
   },
   {
      "name": "dikwa",
      "longitude": 14.02693,
      "latitude": 11.90069,
      "state": "borno stateBO",
      "geonameId": 8659834
   },
   {
      "name": "gubio",
      "longitude": 12.75361,
      "latitude": 12.67777,
      "state": "borno stateBO",
      "geonameId": 8659826
   },
   {
      "name": "guzamala",
      "longitude": 13.21395,
      "latitude": 12.91849,
      "state": "borno stateBO",
      "geonameId": 8659825
   },
   {
      "name": "gwoza",
      "longitude": 13.57926,
      "latitude": 11.17639,
      "state": "borno stateBO",
      "geonameId": 8659839
   },
   {
      "name": "hawul",
      "longitude": 12.24682,
      "latitude": 10.4331,
      "state": "borno stateBO",
      "geonameId": 8659844
   },
   {
      "name": "jere",
      "longitude": 13.29155,
      "latitude": 11.89912,
      "state": "borno stateBO",
      "geonameId": 8659835
   },
   {
      "name": "kaga",
      "longitude": 12.45165,
      "latitude": 11.64518,
      "state": "borno stateBO",
      "geonameId": 8659837
   },
   {
      "name": "kala-balge",
      "longitude": 14.48093,
      "latitude": 12.04639,
      "state": "borno stateBO",
      "geonameId": 8659832
   },
   {
      "name": "konduga",
      "longitude": 13.00278,
      "latitude": 11.58605,
      "state": "borno stateBO",
      "geonameId": 8659836
   },
   {
      "name": "kukawa",
      "longitude": 13.73811,
      "latitude": 13.13073,
      "state": "borno stateBO",
      "geonameId": 8659824
   },
   {
      "name": "kwaya kusar",
      "longitude": 11.99089,
      "latitude": 10.44317,
      "state": "borno stateBO",
      "geonameId": 8659847
   },
   {
      "name": "mafa",
      "longitude": 13.53703,
      "latitude": 12.00204,
      "state": "borno stateBO",
      "geonameId": 8659833
   },
   {
      "name": "magumeri",
      "longitude": 12.63114,
      "latitude": 12.17309,
      "state": "borno stateBO",
      "geonameId": 8659829
   },
   {
      "name": "maiduguri",
      "longitude": 13.15166,
      "latitude": 11.83537,
      "state": "borno stateBO",
      "geonameId": 8659860
   },
   {
      "name": "marte",
      "longitude": 13.87278,
      "latitude": 12.40959,
      "state": "borno stateBO",
      "geonameId": 8659830
   },
   {
      "name": "mobbar",
      "longitude": 12.6966,
      "latitude": 13.09165,
      "state": "borno stateBO",
      "geonameId": 8659823
   },
   {
      "name": "monguno",
      "longitude": 13.61727,
      "latitude": 12.57852,
      "state": "borno stateBO",
      "geonameId": 8659828
   },
   {
      "name": "ngala",
      "longitude": 14.18319,
      "latitude": 12.21532,
      "state": "borno stateBO",
      "geonameId": 8659831
   },
   {
      "name": "nganzai",
      "longitude": 13.10414,
      "latitude": 12.50884,
      "state": "borno stateBO",
      "geonameId": 8659827
   },
   {
      "name": "shani",
      "longitude": 11.96386,
      "latitude": 10.18393,
      "state": "borno stateBO",
      "geonameId": 8659846
   },
   {
      "name": "abi",
      "longitude": 8.03799,
      "latitude": 5.90661,
      "state": "cross river stateCR",
      "geonameId": 7932502
   },
   {
      "name": "akamkpa",
      "longitude": 8.51855,
      "latitude": 5.42728,
      "state": "cross river stateCR",
      "geonameId": 8638548
   },
   {
      "name": "akpabuyo",
      "longitude": 8.48111,
      "latitude": 4.90092,
      "state": "cross river stateCR",
      "geonameId": 8638552
   },
   {
      "name": "bakassi",
      "longitude": 8.60212,
      "latitude": 4.81714,
      "state": "cross river stateCR",
      "geonameId": 9172954
   },
   {
      "name": "bekwarra",
      "longitude": 8.91057,
      "latitude": 6.69583,
      "state": "cross river stateCR",
      "geonameId": 8638542
   },
   {
      "name": "biase",
      "longitude": 8.07809,
      "latitude": 5.55942,
      "state": "cross river stateCR",
      "geonameId": 8638547
   },
   {
      "name": "boki",
      "longitude": 9.03333,
      "latitude": 6.25,
      "state": "cross river stateCR",
      "geonameId": 7730003
   },
   {
      "name": "calabar municipal",
      "longitude": 8.30343,
      "latitude": 4.99088,
      "state": "cross river stateCR",
      "geonameId": 8638550
   },
   {
      "name": "calabar south",
      "longitude": 8.33635,
      "latitude": 4.86413,
      "state": "cross river stateCR",
      "geonameId": 8638551
   },
   {
      "name": "etung",
      "longitude": 8.79164,
      "latitude": 5.85894,
      "state": "cross river stateCR",
      "geonameId": 8638545
   },
   {
      "name": "ikom",
      "longitude": 8.61667,
      "latitude": 6.08333,
      "state": "cross river stateCR",
      "geonameId": 7932499
   },
   {
      "name": "obanliku",
      "longitude": 9.30699,
      "latitude": 6.53726,
      "state": "cross river stateCR",
      "geonameId": 8638544
   },
   {
      "name": "obubra",
      "longitude": 8.37883,
      "latitude": 5.9429,
      "state": "cross river stateCR",
      "geonameId": 7932501
   },
   {
      "name": "obudu",
      "longitude": 9.04543,
      "latitude": 6.5433,
      "state": "cross river stateCR",
      "geonameId": 7932505
   },
   {
      "name": "odukpani",
      "longitude": 8.13314,
      "latitude": 5.18502,
      "state": "cross river stateCR",
      "geonameId": 8638549
   },
   {
      "name": "ogoja",
      "longitude": 8.80258,
      "latitude": 6.59671,
      "state": "cross river stateCR",
      "geonameId": 7932500
   },
   {
      "name": "yakurr",
      "longitude": 8.17499,
      "latitude": 5.80608,
      "state": "cross river stateCR",
      "geonameId": 8638546
   },
   {
      "name": "yala",
      "longitude": 8.54939,
      "latitude": 6.65398,
      "state": "cross river stateCR",
      "geonameId": 8638513
   },
   {
      "name": "aniocha north",
      "longitude": 6.48737,
      "latitude": 6.35447,
      "state": "deltaDE",
      "geonameId": 7873883
   },
   {
      "name": "aniocha south",
      "longitude": 6.48334,
      "latitude": 6.12829,
      "state": "deltaDE",
      "geonameId": 7729915
   },
   {
      "name": "bomadi",
      "longitude": 5.90424,
      "latitude": 5.16914,
      "state": "deltaDE",
      "geonameId": 8638006
   },
   {
      "name": "burutu",
      "longitude": 5.60285,
      "latitude": 5.21173,
      "state": "deltaDE",
      "geonameId": 8638005
   },
   {
      "name": "ethiope east",
      "longitude": 5.98414,
      "latitude": 5.68799,
      "state": "deltaDE",
      "geonameId": 7729918
   },
   {
      "name": "ethiope west",
      "longitude": 5.72939,
      "latitude": 5.91996,
      "state": "deltaDE",
      "geonameId": 7729917
   },
   {
      "name": "ika north east",
      "longitude": 6.28963,
      "latitude": 6.22865,
      "state": "deltaDE",
      "geonameId": 7729919
   },
   {
      "name": "ika south",
      "longitude": 6.12881,
      "latitude": 6.17084,
      "state": "deltaDE",
      "geonameId": 7729921
   },
   {
      "name": "isoko north",
      "longitude": 6.23414,
      "latitude": 5.52493,
      "state": "deltaDE",
      "geonameId": 7729922
   },
   {
      "name": "isoko south",
      "longitude": 6.21417,
      "latitude": 5.38209,
      "state": "deltaDE",
      "geonameId": 7729923
   },
   {
      "name": "ndokwa east",
      "longitude": 6.50771,
      "latitude": 5.67029,
      "state": "deltaDE",
      "geonameId": 7729925
   },
   {
      "name": "ndokwa west",
      "longitude": 6.39223,
      "latitude": 5.77323,
      "state": "deltaDE",
      "geonameId": 7729927
   },
   {
      "name": "okpe",
      "longitude": 5.78333,
      "latitude": 5.68625,
      "state": "deltaDE",
      "geonameId": 8637984
   },
   {
      "name": "oshimili north",
      "longitude": 6.64445,
      "latitude": 6.32273,
      "state": "deltaDE",
      "geonameId": 7729931
   },
   {
      "name": "oshimili south",
      "longitude": 6.68172,
      "latitude": 6.09213,
      "state": "deltaDE",
      "geonameId": 7729934
   },
   {
      "name": "patani",
      "longitude": 6.09765,
      "latitude": 5.17928,
      "state": "deltaDE",
      "geonameId": 8638007
   },
   {
      "name": "sapele",
      "longitude": 5.65354,
      "latitude": 5.82618,
      "state": "deltaDE",
      "geonameId": 8637981
   },
   {
      "name": "udu",
      "longitude": 5.82203,
      "latitude": 5.47222,
      "state": "deltaDE",
      "geonameId": 7729936
   },
   {
      "name": "ughelli north",
      "longitude": 6.04821,
      "latitude": 5.51122,
      "state": "deltaDE",
      "geonameId": 7729938
   },
   {
      "name": "ughelli south",
      "longitude": 5.95108,
      "latitude": 5.3435,
      "state": "deltaDE",
      "geonameId": 7729939
   },
   {
      "name": "ukwuani",
      "longitude": 6.23741,
      "latitude": 5.84481,
      "state": "deltaDE",
      "geonameId": 7729940
   },
   {
      "name": "uvwie",
      "longitude": 5.77602,
      "latitude": 5.57157,
      "state": "deltaDE",
      "geonameId": 7729945
   },
   {
      "name": "warri north",
      "longitude": 5.27687,
      "latitude": 5.88243,
      "state": "deltaDE",
      "geonameId": 7729942
   },
   {
      "name": "warri south",
      "longitude": 5.61063,
      "latitude": 5.61326,
      "state": "deltaDE",
      "geonameId": 7729943
   },
   {
      "name": "warri south-west",
      "longitude": 5.37418,
      "latitude": 5.49686,
      "state": "deltaDE",
      "geonameId": 7729946
   },
   {
      "name": "abakaliki",
      "longitude": 8.21133,
      "latitude": 6.25646,
      "state": "ebonyi stateEB",
      "geonameId": 8659714
   },
   {
      "name": "afikpo north",
      "longitude": 7.93735,
      "latitude": 5.89312,
      "state": "ebonyi stateEB",
      "geonameId": 7730004
   },
   {
      "name": "afikpo south",
      "longitude": 7.7987,
      "latitude": 5.8493,
      "state": "ebonyi stateEB",
      "geonameId": 8643695
   },
   {
      "name": "ebonyi",
      "longitude": 8.12984,
      "latitude": 6.52184,
      "state": "ebonyi stateEB",
      "geonameId": 8659712
   },
   {
      "name": "ezza north",
      "longitude": 7.97127,
      "latitude": 6.27078,
      "state": "ebonyi stateEB",
      "geonameId": 8659713
   },
   {
      "name": "ezza south",
      "longitude": 8.001,
      "latitude": 6.11661,
      "state": "ebonyi stateEB",
      "geonameId": 8659716
   },
   {
      "name": "ikwo",
      "longitude": 8.16284,
      "latitude": 6.05316,
      "state": "ebonyi stateEB",
      "geonameId": 7730005
   },
   {
      "name": "ishielu",
      "longitude": 7.83583,
      "latitude": 6.42714,
      "state": "ebonyi stateEB",
      "geonameId": 8659710
   },
   {
      "name": "ivo",
      "longitude": 7.6233,
      "latitude": 5.88426,
      "state": "ebonyi stateEB",
      "geonameId": 8659718
   },
   {
      "name": "izzi",
      "longitude": 8.29468,
      "latitude": 6.48453,
      "state": "ebonyi stateEB",
      "geonameId": 7730006
   },
   {
      "name": "ohaozara",
      "longitude": 7.77747,
      "latitude": 6.0109,
      "state": "ebonyi stateEB",
      "geonameId": 8659717
   },
   {
      "name": "ohaukwu",
      "longitude": 8.02303,
      "latitude": 6.53285,
      "state": "ebonyi stateEB",
      "geonameId": 8659711
   },
   {
      "name": "onicha",
      "longitude": 7.84133,
      "latitude": 6.09899,
      "state": "ebonyi stateEB",
      "geonameId": 8659715
   },
   {
      "name": "akoko-edo",
      "longitude": 6.11489,
      "latitude": 7.34506,
      "state": "edoED",
      "geonameId": 8636772
   },
   {
      "name": "egor",
      "longitude": 5.57547,
      "latitude": 6.35748,
      "state": "edoED",
      "geonameId": 8636763
   },
   {
      "name": "esan central",
      "longitude": 6.19313,
      "latitude": 6.70969,
      "state": "edoED",
      "geonameId": 8636767
   },
   {
      "name": "esan north-east",
      "longitude": 6.39676,
      "latitude": 6.75495,
      "state": "edoED",
      "geonameId": 8636768
   },
   {
      "name": "esan south-east",
      "longitude": 6.47585,
      "latitude": 6.58663,
      "state": "edoED",
      "geonameId": 8636769
   },
   {
      "name": "esan west",
      "longitude": 6.12908,
      "latitude": 6.66166,
      "state": "edoED",
      "geonameId": 8636766
   },
   {
      "name": "etsako central",
      "longitude": 6.51235,
      "latitude": 6.97193,
      "state": "edoED",
      "geonameId": 8636775
   },
   {
      "name": "etsako east",
      "longitude": 6.49613,
      "latitude": 7.20919,
      "state": "edoED",
      "geonameId": 8636773
   },
   {
      "name": "etsako west",
      "longitude": 6.30145,
      "latitude": 6.99829,
      "state": "edoED",
      "geonameId": 8636774
   },
   {
      "name": "iguegben",
      "longitude": 6.24264,
      "latitude": 6.52782,
      "state": "edoED",
      "geonameId": 8636765
   },
   {
      "name": "ikpoba-okha",
      "longitude": 5.62284,
      "latitude": 6.16445,
      "state": "edoED",
      "geonameId": 7932077
   },
   {
      "name": "oredo",
      "longitude": 5.55114,
      "latitude": 6.23581,
      "state": "edoED",
      "geonameId": 8636764
   },
   {
      "name": "orhionmwon",
      "longitude": 5.98405,
      "latitude": 6.25354,
      "state": "edoED",
      "geonameId": 7873880
   },
   {
      "name": "ovia north-east",
      "longitude": 5.57989,
      "latitude": 6.64465,
      "state": "edoED",
      "geonameId": 7873878
   },
   {
      "name": "ovia south-west",
      "longitude": 5.272,
      "latitude": 6.396,
      "state": "edoED",
      "geonameId": 7873877
   },
   {
      "name": "owan east",
      "longitude": 6.07942,
      "latitude": 7.03162,
      "state": "edoED",
      "geonameId": 8636771
   },
   {
      "name": "owan west",
      "longitude": 5.89385,
      "latitude": 6.92934,
      "state": "edoED",
      "geonameId": 8636770
   },
   {
      "name": "uhunmwonde",
      "longitude": 5.88452,
      "latitude": 6.49222,
      "state": "edoED",
      "geonameId": 7932071
   },
   {
      "name": "ado-ekiti",
      "longitude": 5.27384,
      "latitude": 7.61261,
      "state": "ekiti stateEK",
      "geonameId": 8636740
   },
   {
      "name": "efon",
      "longitude": 4.93721,
      "latitude": 7.69576,
      "state": "ekiti stateEK",
      "geonameId": 8636730
   },
   {
      "name": "ekiti east",
      "longitude": 5.66928,
      "latitude": 7.7353,
      "state": "ekiti stateEK",
      "geonameId": 8636738
   },
   {
      "name": "ekiti south-west",
      "longitude": 5.05179,
      "latitude": 7.51325,
      "state": "ekiti stateEK",
      "geonameId": 8636745
   },
   {
      "name": "ekiti west",
      "longitude": 5.02847,
      "latitude": 7.68663,
      "state": "ekiti stateEK",
      "geonameId": 8636731
   },
   {
      "name": "emure",
      "longitude": 5.51617,
      "latitude": 7.43213,
      "state": "ekiti stateEK",
      "geonameId": 8636742
   },
   {
      "name": "gbonyin",
      "longitude": 5.49894,
      "latitude": 7.60653,
      "state": "ekiti stateEK",
      "geonameId": 8636741
   },
   {
      "name": "ido-osi",
      "longitude": 5.18867,
      "latitude": 7.86204,
      "state": "ekiti stateEK",
      "geonameId": 8636734
   },
   {
      "name": "ijero",
      "longitude": 5.05686,
      "latitude": 7.84582,
      "state": "ekiti stateEK",
      "geonameId": 8636732
   },
   {
      "name": "ikere",
      "longitude": 5.21807,
      "latitude": 7.50209,
      "state": "ekiti stateEK",
      "geonameId": 8636744
   },
   {
      "name": "ikole",
      "longitude": 5.5111,
      "latitude": 7.89347,
      "state": "ekiti stateEK",
      "geonameId": 8636737
   },
   {
      "name": "ilejemeje",
      "longitude": 5.23734,
      "latitude": 7.95837,
      "state": "ekiti stateEK",
      "geonameId": 8636735
   },
   {
      "name": "irepodun/ifelodun",
      "longitude": 5.22923,
      "latitude": 7.71603,
      "state": "ekiti stateEK",
      "geonameId": 8636739
   },
   {
      "name": "ise/orun",
      "longitude": 5.3945,
      "latitude": 7.44531,
      "state": "ekiti stateEK",
      "geonameId": 8636743
   },
   {
      "name": "moba",
      "longitude": 5.13189,
      "latitude": 8.00095,
      "state": "ekiti stateEK",
      "geonameId": 8636733
   },
   {
      "name": "oye",
      "longitude": 5.34482,
      "latitude": 7.88942,
      "state": "ekiti stateEK",
      "geonameId": 8636736
   },
   {
      "name": "aninri",
      "longitude": 7.59137,
      "latitude": 6.06155,
      "state": "enugu stateEN",
      "geonameId": 8659742
   },
   {
      "name": "awgu",
      "longitude": 7.43658,
      "latitude": 6.14311,
      "state": "enugu stateEN",
      "geonameId": 7873937
   },
   {
      "name": "enugu east",
      "longitude": 7.53333,
      "latitude": 6.53333,
      "state": "enugu stateEN",
      "geonameId": 7730007
   },
   {
      "name": "enugu north",
      "longitude": 7.53521,
      "latitude": 6.44476,
      "state": "enugu stateEN",
      "geonameId": 8659740
   },
   {
      "name": "enugu south",
      "longitude": 7.51096,
      "latitude": 6.39173,
      "state": "enugu stateEN",
      "geonameId": 7873926
   },
   {
      "name": "ezeagu",
      "longitude": 7.21477,
      "latitude": 6.41062,
      "state": "enugu stateEN",
      "geonameId": 8659741
   },
   {
      "name": "igbo-etiti",
      "longitude": 7.41959,
      "latitude": 6.68151,
      "state": "enugu stateEN",
      "geonameId": 8659739
   },
   {
      "name": "igbo-eze-north",
      "longitude": 7.45,
      "latitude": 6.98333,
      "state": "enugu stateEN",
      "geonameId": 7730008
   },
   {
      "name": "igbo-eze-south",
      "longitude": 7.36673,
      "latitude": 6.93368,
      "state": "enugu stateEN",
      "geonameId": 8659737
   },
   {
      "name": "isi-uzo",
      "longitude": 7.69294,
      "latitude": 6.73066,
      "state": "enugu stateEN",
      "geonameId": 7932063
   },
   {
      "name": "nkanu east",
      "longitude": 7.62422,
      "latitude": 6.31519,
      "state": "enugu stateEN",
      "geonameId": 7873938
   },
   {
      "name": "nkanu west",
      "longitude": 7.50902,
      "latitude": 6.31098,
      "state": "enugu stateEN",
      "geonameId": 7932082
   },
   {
      "name": "nsukka",
      "longitude": 7.34801,
      "latitude": 6.85329,
      "state": "enugu stateEN",
      "geonameId": 8659738
   },
   {
      "name": "oji-river",
      "longitude": 7.27723,
      "latitude": 6.17032,
      "state": "enugu stateEN",
      "geonameId": 7873925
   },
   {
      "name": "udenu",
      "longitude": 7.56714,
      "latitude": 6.87201,
      "state": "enugu stateEN",
      "geonameId": 8659719
   },
   {
      "name": "udi",
      "longitude": 7.35535,
      "latitude": 6.51181,
      "state": "enugu stateEN",
      "geonameId": 7730010
   },
   {
      "name": "uzo-uwani",
      "longitude": 7.13794,
      "latitude": 6.74135,
      "state": "enugu stateEN",
      "geonameId": 7932491
   },
   {
      "name": "abaji",
      "longitude": 6.81816,
      "latitude": 8.89212,
      "state": "fctFC",
      "geonameId": 8634966
   },
   {
      "name": "bwari",
      "longitude": 7.408,
      "latitude": 9.218,
      "state": "fctFC",
      "geonameId": 7871247
   },
   {
      "name": "gwagwalada",
      "longitude": 6.9854,
      "latitude": 9.07639,
      "state": "fctFC",
      "geonameId": 8634962
   },
   {
      "name": "kuje",
      "longitude": 7.27046,
      "latitude": 8.65901,
      "state": "fctFC",
      "geonameId": 8634971
   },
   {
      "name": "kwali",
      "longitude": 6.96777,
      "latitude": 8.73555,
      "state": "fctFC",
      "geonameId": 8634970
   },
   {
      "name": "municipal area council",
      "longitude": 7.37831,
      "latitude": 8.99997,
      "state": "fctFC",
      "geonameId": 8635054
   },
   {
      "name": "akko",
      "longitude": 11.04833,
      "latitude": 10.09994,
      "state": "gombe stateGO",
      "geonameId": 8659791
   },
   {
      "name": "balanga",
      "longitude": 11.78623,
      "latitude": 9.8096,
      "state": "gombe stateGO",
      "geonameId": 8659789
   },
   {
      "name": "billiri",
      "longitude": 11.12424,
      "latitude": 9.81575,
      "state": "gombe stateGO",
      "geonameId": 8659788
   },
   {
      "name": "dukku",
      "longitude": 10.82838,
      "latitude": 10.80261,
      "state": "gombe stateGO",
      "geonameId": 8659795
   },
   {
      "name": "funakaye",
      "longitude": 11.40843,
      "latitude": 10.74227,
      "state": "gombe stateGO",
      "geonameId": 8659796
   },
   {
      "name": "gombe",
      "longitude": 11.16674,
      "latitude": 10.28263,
      "state": "gombe stateGO",
      "geonameId": 8659793
   },
   {
      "name": "kaltungo",
      "longitude": 11.42205,
      "latitude": 9.82354,
      "state": "gombe stateGO",
      "geonameId": 8659790
   },
   {
      "name": "kwami",
      "longitude": 11.20989,
      "latitude": 10.49313,
      "state": "gombe stateGO",
      "geonameId": 8659794
   },
   {
      "name": "nafada",
      "longitude": 11.21573,
      "latitude": 11.09069,
      "state": "gombe stateGO",
      "geonameId": 8659797
   },
   {
      "name": "shomgom",
      "longitude": 11.2566,
      "latitude": 9.67366,
      "state": "gombe stateGO",
      "geonameId": 8659787
   },
   {
      "name": "yamaltu/deba",
      "longitude": 11.44152,
      "latitude": 10.23814,
      "state": "gombe stateGO",
      "geonameId": 8659792
   },
   {
      "name": "aboh-mbaise",
      "longitude": 7.2518,
      "latitude": 5.42549,
      "state": "imo stateIM",
      "geonameId": 7729947
   },
   {
      "name": "ahiazu-mbaise",
      "longitude": 7.27135,
      "latitude": 5.54639,
      "state": "imo stateIM",
      "geonameId": 7729948
   },
   {
      "name": "ehime -mbano",
      "longitude": 7.30304,
      "latitude": 5.66491,
      "state": "imo stateIM",
      "geonameId": 7729949
   },
   {
      "name": "ezinihitte",
      "longitude": 7.32626,
      "latitude": 5.47876,
      "state": "imo stateIM",
      "geonameId": 8638291
   },
   {
      "name": "ideato north",
      "longitude": 7.13136,
      "latitude": 5.88537,
      "state": "imo stateIM",
      "geonameId": 8638293
   },
   {
      "name": "ideato south",
      "longitude": 7.13906,
      "latitude": 5.80608,
      "state": "imo stateIM",
      "geonameId": 8638294
   },
   {
      "name": "ihitte/uboma",
      "longitude": 7.36525,
      "latitude": 5.62182,
      "state": "imo stateIM",
      "geonameId": 7729951
   },
   {
      "name": "ikeduru",
      "longitude": 7.15338,
      "latitude": 5.56795,
      "state": "imo stateIM",
      "geonameId": 8638290
   },
   {
      "name": "isiala mbano",
      "longitude": 7.20338,
      "latitude": 5.66767,
      "state": "imo stateIM",
      "geonameId": 7729952
   },
   {
      "name": "isu",
      "longitude": 7.05648,
      "latitude": 5.68826,
      "state": "imo stateIM",
      "geonameId": 8638327
   },
   {
      "name": "mbaitoli local government area",
      "longitude": 7.02124,
      "latitude": 5.58998,
      "state": "imo stateIM",
      "geonameId": 9485478
   },
   {
      "name": "mbatoli",
      "longitude": 7.03938,
      "latitude": 5.58953,
      "state": "imo stateIM",
      "geonameId": 7729953
   },
   {
      "name": "ngor-okpala",
      "longitude": 7.15888,
      "latitude": 5.32019,
      "state": "imo stateIM",
      "geonameId": 8638163
   },
   {
      "name": "njaba",
      "longitude": 7.00821,
      "latitude": 5.70587,
      "state": "imo stateIM",
      "geonameId": 7729955
   },
   {
      "name": "nkwerre",
      "longitude": 7.10603,
      "latitude": 5.75322,
      "state": "imo stateIM",
      "geonameId": 8638328
   },
   {
      "name": "nwangele",
      "longitude": 7.12585,
      "latitude": 5.71028,
      "state": "imo stateIM",
      "geonameId": 8638329
   },
   {
      "name": "obowo",
      "longitude": 7.3601,
      "latitude": 5.54927,
      "state": "imo stateIM",
      "geonameId": 7729956
   },
   {
      "name": "oguta",
      "longitude": 6.7999,
      "latitude": 5.66926,
      "state": "imo stateIM",
      "geonameId": 8638162
   },
   {
      "name": "ohaji/egbema",
      "longitude": 6.82451,
      "latitude": 5.40237,
      "state": "imo stateIM",
      "geonameId": 7729957
   },
   {
      "name": "okigwe",
      "longitude": 7.32559,
      "latitude": 5.81088,
      "state": "imo stateIM",
      "geonameId": 7729958
   },
   {
      "name": "orlu",
      "longitude": 7.03886,
      "latitude": 5.80718,
      "state": "imo stateIM",
      "geonameId": 8638292
   },
   {
      "name": "orsu",
      "longitude": 6.99759,
      "latitude": 5.86149,
      "state": "imo stateIM",
      "geonameId": 7729959
   },
   {
      "name": "oru east",
      "longitude": 6.96015,
      "latitude": 5.70557,
      "state": "imo stateIM",
      "geonameId": 7729960
   },
   {
      "name": "oru west",
      "longitude": 6.91093,
      "latitude": 5.74224,
      "state": "imo stateIM",
      "geonameId": 7729961
   },
   {
      "name": "owerri municipal",
      "longitude": 7.01683,
      "latitude": 5.47656,
      "state": "imo stateIM",
      "geonameId": 8638164
   },
   {
      "name": "owerri north",
      "longitude": 7.10273,
      "latitude": 5.45674,
      "state": "imo stateIM",
      "geonameId": 8638331
   },
   {
      "name": "owerri west",
      "longitude": 6.98041,
      "latitude": 5.43226,
      "state": "imo stateIM",
      "geonameId": 7729962
   },
   {
      "name": "unuimo",
      "longitude": 7.2411,
      "latitude": 5.77363,
      "state": "imo stateIM",
      "geonameId": 7729964
   },
   {
      "name": "auyo",
      "longitude": 9.98773,
      "latitude": 12.37743,
      "state": "jigawa stateJI",
      "geonameId": 8634255
   },
   {
      "name": "babura",
      "longitude": 8.85872,
      "latitude": 12.61402,
      "state": "jigawa stateJI",
      "geonameId": 8634241
   },
   {
      "name": "biriniwa",
      "longitude": 10.07471,
      "latitude": 12.83321,
      "state": "jigawa stateJI",
      "geonameId": 8634259
   },
   {
      "name": "birnin kudu",
      "longitude": 9.49368,
      "latitude": 11.49023,
      "state": "jigawa stateJI",
      "geonameId": 8634261
   },
   {
      "name": "buji",
      "longitude": 9.72012,
      "latitude": 11.57914,
      "state": "jigawa stateJI",
      "geonameId": 8634262
   },
   {
      "name": "dutse",
      "longitude": 9.30708,
      "latitude": 11.80331,
      "state": "jigawa stateJI",
      "geonameId": 8634252
   },
   {
      "name": "gagarawa",
      "longitude": 9.53717,
      "latitude": 12.51138,
      "state": "jigawa stateJI",
      "geonameId": 8634246
   },
   {
      "name": "garki",
      "longitude": 9.06052,
      "latitude": 12.42962,
      "state": "jigawa stateJI",
      "geonameId": 8634242
   },
   {
      "name": "gumel",
      "longitude": 9.40148,
      "latitude": 12.63837,
      "state": "jigawa stateJI",
      "geonameId": 8634244
   },
   {
      "name": "guri",
      "longitude": 10.46961,
      "latitude": 12.65751,
      "state": "jigawa stateJI",
      "geonameId": 8634257
   },
   {
      "name": "gwaram",
      "longitude": 9.9686,
      "latitude": 11.1858,
      "state": "jigawa stateJI",
      "geonameId": 8634263
   },
   {
      "name": "gwiwa",
      "longitude": 8.28117,
      "latitude": 12.75406,
      "state": "jigawa stateJI",
      "geonameId": 8634237
   },
   {
      "name": "hadejia",
      "longitude": 10.05266,
      "latitude": 12.43487,
      "state": "jigawa stateJI",
      "geonameId": 8634256
   },
   {
      "name": "jahun",
      "longitude": 9.55457,
      "latitude": 12.07996,
      "state": "jigawa stateJI",
      "geonameId": 8634251
   },
   {
      "name": "kafin hausa",
      "longitude": 10.00247,
      "latitude": 12.14958,
      "state": "jigawa stateJI",
      "geonameId": 8634254
   },
   {
      "name": "kaugama",
      "longitude": 9.7668,
      "latitude": 12.50268,
      "state": "jigawa stateJI",
      "geonameId": 8634249
   },
   {
      "name": "kazaure",
      "longitude": 8.51353,
      "latitude": 12.59681,
      "state": "jigawa stateJI",
      "geonameId": 8634240
   },
   {
      "name": "kiri kasama",
      "longitude": 10.25216,
      "latitude": 12.56531,
      "state": "jigawa stateJI",
      "geonameId": 8634258
   },
   {
      "name": "kiyawa",
      "longitude": 9.53697,
      "latitude": 11.84147,
      "state": "jigawa stateJI",
      "geonameId": 8634253
   },
   {
      "name": "maigatari",
      "longitude": 9.58588,
      "latitude": 12.72535,
      "state": "jigawa stateJI",
      "geonameId": 8634245
   },
   {
      "name": "malam maduri",
      "longitude": 9.98599,
      "latitude": 12.56009,
      "state": "jigawa stateJI",
      "geonameId": 8634260
   },
   {
      "name": "miga",
      "longitude": 9.69026,
      "latitude": 12.2313,
      "state": "jigawa stateJI",
      "geonameId": 8634250
   },
   {
      "name": "ringim",
      "longitude": 9.10401,
      "latitude": 12.18607,
      "state": "jigawa stateJI",
      "geonameId": 8634247
   },
   {
      "name": "roni",
      "longitude": 8.33144,
      "latitude": 12.54925,
      "state": "jigawa stateJI",
      "geonameId": 8634239
   },
   {
      "name": "sule tankakar",
      "longitude": 9.18751,
      "latitude": 12.65577,
      "state": "jigawa stateJI",
      "geonameId": 8634243
   },
   {
      "name": "taura",
      "longitude": 9.38409,
      "latitude": 12.25566,
      "state": "jigawa stateJI",
      "geonameId": 8634248
   },
   {
      "name": "yankwashi",
      "longitude": 8.5369,
      "latitude": 12.76971,
      "state": "jigawa stateJI",
      "geonameId": 8634238
   },
   {
      "name": "birnin gwari",
      "longitude": 6.65505,
      "latitude": 10.82612,
      "state": "kaduna stateKD",
      "geonameId": 7910313
   },
   {
      "name": "chikun",
      "longitude": 7.274,
      "latitude": 10.315,
      "state": "kaduna stateKD",
      "geonameId": 7871251
   },
   {
      "name": "giwa",
      "longitude": 7.40565,
      "latitude": 11.12077,
      "state": "kaduna stateKD",
      "geonameId": 7932490
   },
   {
      "name": "igabi",
      "longitude": 7.504,
      "latitude": 10.781,
      "state": "kaduna stateKD",
      "geonameId": 7871252
   },
   {
      "name": "ikara",
      "longitude": 8.20028,
      "latitude": 11.24755,
      "state": "kaduna stateKD",
      "geonameId": 8634546
   },
   {
      "name": "jaba",
      "longitude": 8.04372,
      "latitude": 9.48185,
      "state": "kaduna stateKD",
      "geonameId": 8634602
   },
   {
      "name": "jema'a",
      "longitude": 8.26813,
      "latitude": 9.38269,
      "state": "kaduna stateKD",
      "geonameId": 8634542
   },
   {
      "name": "kachia",
      "longitude": 7.56,
      "latitude": 9.85,
      "state": "kaduna stateKD",
      "geonameId": 7871250
   },
   {
      "name": "kaduna north",
      "longitude": 7.452,
      "latitude": 10.568,
      "state": "kaduna stateKD",
      "geonameId": 7871255
   },
   {
      "name": "kaduna south",
      "longitude": 7.421,
      "latitude": 10.468,
      "state": "kaduna stateKD",
      "geonameId": 7871253
   },
   {
      "name": "kagarko",
      "longitude": 7.577,
      "latitude": 9.437,
      "state": "kaduna stateKD",
      "geonameId": 7871249
   },
   {
      "name": "kajuru",
      "longitude": 7.85783,
      "latitude": 10.27704,
      "state": "kaduna stateKD",
      "geonameId": 8634545
   },
   {
      "name": "kaura",
      "longitude": 8.46992,
      "latitude": 9.61232,
      "state": "kaduna stateKD",
      "geonameId": 8634541
   },
   {
      "name": "kauru",
      "longitude": 8.29422,
      "latitude": 10.22988,
      "state": "kaduna stateKD",
      "geonameId": 8634544
   },
   {
      "name": "kuban",
      "longitude": 8.38294,
      "latitude": 10.87876,
      "state": "kaduna stateKD",
      "geonameId": 8634565
   },
   {
      "name": "kudan",
      "longitude": 7.799,
      "latitude": 11.273,
      "state": "kaduna stateKD",
      "geonameId": 7871259
   },
   {
      "name": "lere",
      "longitude": 8.56734,
      "latitude": 10.34643,
      "state": "kaduna stateKD",
      "geonameId": 8634543
   },
   {
      "name": "makarfi",
      "longitude": 7.96917,
      "latitude": 11.29795,
      "state": "kaduna stateKD",
      "geonameId": 7871254
   },
   {
      "name": "sabon gari",
      "longitude": 7.697,
      "latitude": 11.164,
      "state": "kaduna stateKD",
      "geonameId": 7871258
   },
   {
      "name": "sanga",
      "longitude": 8.45,
      "latitude": 9.25,
      "state": "kaduna stateKD",
      "geonameId": 7910314
   },
   {
      "name": "soba",
      "longitude": 7.96443,
      "latitude": 10.87005,
      "state": "kaduna stateKD",
      "geonameId": 7910322
   },
   {
      "name": "zangon kataf",
      "longitude": 8.25491,
      "latitude": 9.841,
      "state": "kaduna stateKD",
      "geonameId": 8634540
   },
   {
      "name": "zaria",
      "longitude": 7.69622,
      "latitude": 10.98854,
      "state": "kaduna stateKD",
      "geonameId": 7871257
   },
   {
      "name": "ajingi",
      "longitude": 9.06748,
      "latitude": 11.95905,
      "state": "kano stateKN",
      "geonameId": 8633718
   },
   {
      "name": "albasu",
      "longitude": 9.10294,
      "latitude": 11.66237,
      "state": "kano stateKN",
      "geonameId": 8633720
   },
   {
      "name": "bagwai",
      "longitude": 8.14374,
      "latitude": 12.09996,
      "state": "kano stateKN",
      "geonameId": 8633696
   },
   {
      "name": "bebeji",
      "longitude": 8.20353,
      "latitude": 11.53146,
      "state": "kano stateKN",
      "geonameId": 7871263
   },
   {
      "name": "bichi",
      "longitude": 8.27943,
      "latitude": 12.23391,
      "state": "kano stateKN",
      "geonameId": 8633694
   },
   {
      "name": "bunkure",
      "longitude": 8.59687,
      "latitude": 11.66716,
      "state": "kano stateKN",
      "geonameId": 7910343
   },
   {
      "name": "dala",
      "longitude": 8.50719,
      "latitude": 12.01397,
      "state": "kano stateKN",
      "geonameId": 8633819
   },
   {
      "name": "dambatta",
      "longitude": 8.63432,
      "latitude": 12.42005,
      "state": "kano stateKN",
      "geonameId": 8633692
   },
   {
      "name": "dawakin kudu",
      "longitude": 8.69164,
      "latitude": 11.83228,
      "state": "kano stateKN",
      "geonameId": 7871266
   },
   {
      "name": "dawakin tofa",
      "longitude": 8.3986,
      "latitude": 12.12606,
      "state": "kano stateKN",
      "geonameId": 8633699
   },
   {
      "name": "doguwa",
      "longitude": 8.66389,
      "latitude": 10.87963,
      "state": "kano stateKN",
      "geonameId": 8633727
   },
   {
      "name": "fagge",
      "longitude": 8.53363,
      "latitude": 12.02704,
      "state": "kano stateKN",
      "geonameId": 7871270
   },
   {
      "name": "gabasawa",
      "longitude": 8.8622,
      "latitude": 12.14519,
      "state": "kano stateKN",
      "geonameId": 8633693
   },
   {
      "name": "garko",
      "longitude": 8.83524,
      "latitude": 11.57286,
      "state": "kano stateKN",
      "geonameId": 8633724
   },
   {
      "name": "garum mallam",
      "longitude": 8.377,
      "latitude": 11.651,
      "state": "kano stateKN",
      "geonameId": 7871264
   },
   {
      "name": "gaya",
      "longitude": 9.02854,
      "latitude": 11.78161,
      "state": "kano stateKN",
      "geonameId": 8633719
   },
   {
      "name": "gezawa",
      "longitude": 8.73739,
      "latitude": 12.05125,
      "state": "kano stateKN",
      "geonameId": 8633700
   },
   {
      "name": "gwale",
      "longitude": 8.49819,
      "latitude": 11.98211,
      "state": "kano stateKN",
      "geonameId": 8633820
   },
   {
      "name": "gwarzo",
      "longitude": 7.95587,
      "latitude": 11.88425,
      "state": "kano stateKN",
      "geonameId": 8633697
   },
   {
      "name": "kabo",
      "longitude": 8.19419,
      "latitude": 11.87903,
      "state": "kano stateKN",
      "geonameId": 8633698
   },
   {
      "name": "kano municipal",
      "longitude": 8.51898,
      "latitude": 11.98157,
      "state": "kano stateKN",
      "geonameId": 8633821
   },
   {
      "name": "karaye",
      "longitude": 8.00979,
      "latitude": 11.76248,
      "state": "kano stateKN",
      "geonameId": 8633721
   },
   {
      "name": "kibiya",
      "longitude": 8.68563,
      "latitude": 11.49719,
      "state": "kano stateKN",
      "geonameId": 8633723
   },
   {
      "name": "kiru",
      "longitude": 8.149,
      "latitude": 11.543,
      "state": "kano stateKN",
      "geonameId": 7871261
   },
   {
      "name": "kumbotso",
      "longitude": 8.51633,
      "latitude": 11.90063,
      "state": "kano stateKN",
      "geonameId": 7871268
   },
   {
      "name": "kunchi",
      "longitude": 8.27,
      "latitude": 12.5,
      "state": "kano stateKN",
      "geonameId": 7910326
   },
   {
      "name": "kura",
      "longitude": 8.48684,
      "latitude": 11.78775,
      "state": "kano stateKN",
      "geonameId": 7871265
   },
   {
      "name": "madobi",
      "longitude": 8.38468,
      "latitude": 11.82423,
      "state": "kano stateKN",
      "geonameId": 8633717
   },
   {
      "name": "makoda",
      "longitude": 8.433,
      "latitude": 12.419,
      "state": "kano stateKN",
      "geonameId": 7910325
   },
   {
      "name": "minjibir",
      "longitude": 8.61247,
      "latitude": 12.18027,
      "state": "kano stateKN",
      "geonameId": 7910323
   },
   {
      "name": "nassarawa",
      "longitude": 8.55492,
      "latitude": 12.00507,
      "state": "kano stateKN",
      "geonameId": 8633818
   },
   {
      "name": "rano",
      "longitude": 8.51689,
      "latitude": 11.47892,
      "state": "kano stateKN",
      "geonameId": 8633722
   },
   {
      "name": "rimin gado",
      "longitude": 8.27648,
      "latitude": 11.93232,
      "state": "kano stateKN",
      "geonameId": 7910327
   },
   {
      "name": "rogo",
      "longitude": 7.83,
      "latitude": 11.55,
      "state": "kano stateKN",
      "geonameId": 7910328
   },
   {
      "name": "shanono",
      "longitude": 7.95148,
      "latitude": 12.04615,
      "state": "kano stateKN",
      "geonameId": 7910340
   },
   {
      "name": "sumaila",
      "longitude": 8.91439,
      "latitude": 11.32671,
      "state": "kano stateKN",
      "geonameId": 8633725
   },
   {
      "name": "takai",
      "longitude": 9.17562,
      "latitude": 11.46187,
      "state": "kano stateKN",
      "geonameId": 7910341
   },
   {
      "name": "tarauni",
      "longitude": 8.54429,
      "latitude": 11.95862,
      "state": "kano stateKN",
      "geonameId": 8633817
   },
   {
      "name": "tofa",
      "longitude": 8.26667,
      "latitude": 12.05,
      "state": "kano stateKN",
      "geonameId": 7701428
   },
   {
      "name": "tsanyawa",
      "longitude": 8.00806,
      "latitude": 12.26175,
      "state": "kano stateKN",
      "geonameId": 8633695
   },
   {
      "name": "tudun wada",
      "longitude": 8.59928,
      "latitude": 11.28272,
      "state": "kano stateKN",
      "geonameId": 8633726
   },
   {
      "name": "ungogo",
      "longitude": 8.44341,
      "latitude": 12.04201,
      "state": "kano stateKN",
      "geonameId": 7910324
   },
   {
      "name": "warawa",
      "longitude": 8.77148,
      "latitude": 11.90808,
      "state": "kano stateKN",
      "geonameId": 7729909
   },
   {
      "name": "wudil",
      "longitude": 8.81859,
      "latitude": 11.72959,
      "state": "kano stateKN",
      "geonameId": 7910329
   },
   {
      "name": "bakori",
      "longitude": 7.42876,
      "latitude": 11.63984,
      "state": "katsina stateKT",
      "geonameId": 8633656
   },
   {
      "name": "batagarawa",
      "longitude": 7.60653,
      "latitude": 12.89377,
      "state": "katsina stateKT",
      "geonameId": 8633554
   },
   {
      "name": "batsari",
      "longitude": 7.2345,
      "latitude": 12.77931,
      "state": "katsina stateKT",
      "geonameId": 8633551
   },
   {
      "name": "baure",
      "longitude": 8.78914,
      "latitude": 12.78885,
      "state": "katsina stateKT",
      "geonameId": 8633564
   },
   {
      "name": "bindawa",
      "longitude": 7.83199,
      "latitude": 12.7108,
      "state": "katsina stateKT",
      "geonameId": 8633557
   },
   {
      "name": "charanchi",
      "longitude": 7.6837,
      "latitude": 12.60153,
      "state": "katsina stateKT",
      "geonameId": 8633644
   },
   {
      "name": "dan musa",
      "longitude": 7.32961,
      "latitude": 12.23217,
      "state": "katsina stateKT",
      "geonameId": 8633647
   },
   {
      "name": "dandume",
      "longitude": 7.19044,
      "latitude": 11.41282,
      "state": "katsina stateKT",
      "geonameId": 8633670
   },
   {
      "name": "danja",
      "longitude": 7.5488,
      "latitude": 11.39542,
      "state": "katsina stateKT",
      "geonameId": 8633691
   },
   {
      "name": "daura",
      "longitude": 8.2516,
      "latitude": 12.98195,
      "state": "katsina stateKT",
      "geonameId": 8633560
   },
   {
      "name": "dutsi",
      "longitude": 8.14852,
      "latitude": 12.91285,
      "state": "katsina stateKT",
      "geonameId": 8633561
   },
   {
      "name": "dutsin ma",
      "longitude": 7.52241,
      "latitude": 12.45411,
      "state": "katsina stateKT",
      "geonameId": 8633645
   },
   {
      "name": "faskari",
      "longitude": 7.08606,
      "latitude": 11.6755,
      "state": "katsina stateKT",
      "geonameId": 8633658
   },
   {
      "name": "funtua",
      "longitude": 7.30699,
      "latitude": 11.47196,
      "state": "katsina stateKT",
      "geonameId": 8633671
   },
   {
      "name": "ingawa",
      "longitude": 8.05139,
      "latitude": 12.62408,
      "state": "katsina stateKT",
      "geonameId": 8633642
   },
   {
      "name": "jibia",
      "longitude": 7.28913,
      "latitude": 13.04033,
      "state": "katsina stateKT",
      "geonameId": 8633550
   },
   {
      "name": "kafur",
      "longitude": 7.68971,
      "latitude": 11.67376,
      "state": "katsina stateKT",
      "geonameId": 8633654
   },
   {
      "name": "kaita",
      "longitude": 7.72798,
      "latitude": 13.17156,
      "state": "katsina stateKT",
      "geonameId": 8633553
   },
   {
      "name": "kankara",
      "longitude": 7.36266,
      "latitude": 11.97384,
      "state": "katsina stateKT",
      "geonameId": 8633652
   },
   {
      "name": "kankia",
      "longitude": 7.8,
      "latitude": 12.46667,
      "state": "katsina stateKT",
      "geonameId": 7729910
   },
   {
      "name": "katsina",
      "longitude": 7.61433,
      "latitude": 13.00564,
      "state": "katsina stateKT",
      "geonameId": 8633552
   },
   {
      "name": "kurfi",
      "longitude": 7.46257,
      "latitude": 12.70993,
      "state": "katsina stateKT",
      "geonameId": 8633556
   },
   {
      "name": "kusada",
      "longitude": 7.97855,
      "latitude": 12.45758,
      "state": "katsina stateKT",
      "geonameId": 8633643
   },
   {
      "name": "mai'adua",
      "longitude": 8.21167,
      "latitude": 13.19056,
      "state": "katsina stateKT",
      "geonameId": 7729911
   },
   {
      "name": "malumfashi",
      "longitude": 7.65595,
      "latitude": 11.85922,
      "state": "katsina stateKT",
      "geonameId": 8633653
   },
   {
      "name": "mani",
      "longitude": 7.92565,
      "latitude": 12.87816,
      "state": "katsina stateKT",
      "geonameId": 8633558
   },
   {
      "name": "mashi",
      "longitude": 7.99329,
      "latitude": 13.13225,
      "state": "katsina stateKT",
      "geonameId": 8633559
   },
   {
      "name": "matazu",
      "longitude": 7.6178,
      "latitude": 12.25899,
      "state": "katsina stateKT",
      "geonameId": 8633649
   },
   {
      "name": "musawa",
      "longitude": 7.68891,
      "latitude": 12.08469,
      "state": "katsina stateKT",
      "geonameId": 8633651
   },
   {
      "name": "rimi",
      "longitude": 7.69318,
      "latitude": 12.8393,
      "state": "katsina stateKT",
      "geonameId": 8633555
   },
   {
      "name": "sabuwa",
      "longitude": 7.11667,
      "latitude": 11.3,
      "state": "katsina stateKT",
      "geonameId": 7729912
   },
   {
      "name": "safana",
      "longitude": 7.25271,
      "latitude": 12.49487,
      "state": "katsina stateKT",
      "geonameId": 8633646
   },
   {
      "name": "sandamu",
      "longitude": 8.36358,
      "latitude": 12.89724,
      "state": "katsina stateKT",
      "geonameId": 8633562
   },
   {
      "name": "zango",
      "longitude": 8.53268,
      "latitude": 12.93106,
      "state": "katsina stateKT",
      "geonameId": 8633563
   },
   {
      "name": "aleiro",
      "longitude": 4.42793,
      "latitude": 12.29654,
      "state": "kebbiKE",
      "geonameId": 8632705
   },
   {
      "name": "arewa dandi",
      "longitude": 4.0313,
      "latitude": 12.69839,
      "state": "kebbiKE",
      "geonameId": 8632709
   },
   {
      "name": "argungu",
      "longitude": 4.40358,
      "latitude": 12.68795,
      "state": "kebbiKE",
      "geonameId": 8632707
   },
   {
      "name": "augie",
      "longitude": 4.56362,
      "latitude": 12.91932,
      "state": "kebbiKE",
      "geonameId": 8632708
   },
   {
      "name": "bagudo",
      "longitude": 3.95674,
      "latitude": 11.34757,
      "state": "kebbiKE",
      "geonameId": 7873914
   },
   {
      "name": "birnin kebbi",
      "longitude": 4.26267,
      "latitude": 12.45832,
      "state": "kebbiKE",
      "geonameId": 8632706
   },
   {
      "name": "bunza",
      "longitude": 3.91475,
      "latitude": 12.16781,
      "state": "kebbiKE",
      "geonameId": 8631811
   },
   {
      "name": "dandi",
      "longitude": 3.80863,
      "latitude": 11.84424,
      "state": "kebbiKE",
      "geonameId": 8631809
   },
   {
      "name": "fakai",
      "longitude": 4.88239,
      "latitude": 11.52227,
      "state": "kebbiKE",
      "geonameId": 8631813
   },
   {
      "name": "gwandu",
      "longitude": 4.66493,
      "latitude": 12.51695,
      "state": "kebbiKE",
      "geonameId": 7873919
   },
   {
      "name": "jega",
      "longitude": 4.48643,
      "latitude": 12.16397,
      "state": "kebbiKE",
      "geonameId": 7873918
   },
   {
      "name": "kalgo",
      "longitude": 4.10088,
      "latitude": 12.28349,
      "state": "kebbiKE",
      "geonameId": 8631812
   },
   {
      "name": "koko-besse",
      "longitude": 4.43782,
      "latitude": 11.45855,
      "state": "kebbiKE",
      "geonameId": 7873915
   },
   {
      "name": "koko/besse local government area",
      "longitude": 4.42445,
      "latitude": 11.48762,
      "state": "kebbiKE",
      "geonameId": 9485472
   },
   {
      "name": "maiyama",
      "longitude": 4.35394,
      "latitude": 11.99054,
      "state": "kebbiKE",
      "geonameId": 7873917
   },
   {
      "name": "ngaski",
      "longitude": 4.71781,
      "latitude": 10.40709,
      "state": "kebbiKE",
      "geonameId": 7730012
   },
   {
      "name": "sakaba",
      "longitude": 5.54128,
      "latitude": 11.16231,
      "state": "kebbiKE",
      "geonameId": 8631814
   },
   {
      "name": "shanga",
      "longitude": 4.60951,
      "latitude": 11.21165,
      "state": "kebbiKE",
      "geonameId": 8631808
   },
   {
      "name": "suru",
      "longitude": 4.09665,
      "latitude": 11.82999,
      "state": "kebbiKE",
      "geonameId": 8631810
   },
   {
      "name": "wasagu-danko",
      "longitude": 5.6749,
      "latitude": 11.42938,
      "state": "kebbiKE",
      "geonameId": 8632704
   },
   {
      "name": "yauri",
      "longitude": 4.74197,
      "latitude": 10.77643,
      "state": "kebbiKE",
      "geonameId": 7730013
   },
   {
      "name": "yauri local government area",
      "longitude": 4.51491,
      "latitude": 11.0214,
      "state": "kebbiKE",
      "geonameId": 9492098
   },
   {
      "name": "zuru",
      "longitude": 5.28717,
      "latitude": 11.44638,
      "state": "kebbiKE",
      "geonameId": 7730014
   },
   {
      "name": "adavi",
      "longitude": 6.4337,
      "latitude": 7.64141,
      "state": "kogi stateKO",
      "geonameId": 7729965
   },
   {
      "name": "ajaokuta",
      "longitude": 6.5813,
      "latitude": 7.52351,
      "state": "kogi stateKO",
      "geonameId": 8637964
   },
   {
      "name": "ankpa",
      "longitude": 7.63174,
      "latitude": 7.44848,
      "state": "kogi stateKO",
      "geonameId": 8637967
   },
   {
      "name": "bassa",
      "longitude": 7.0244,
      "latitude": 7.77095,
      "state": "kogi stateKO",
      "geonameId": 7729967
   },
   {
      "name": "dekina",
      "longitude": 7.17344,
      "latitude": 7.58435,
      "state": "kogi stateKO",
      "geonameId": 8637965
   },
   {
      "name": "ibaji",
      "longitude": 6.76303,
      "latitude": 6.79931,
      "state": "kogi stateKO",
      "geonameId": 7729968
   },
   {
      "name": "idah",
      "longitude": 6.71514,
      "latitude": 7.08144,
      "state": "kogi stateKO",
      "geonameId": 8637969
   },
   {
      "name": "igalamela-odolu",
      "longitude": 7.01874,
      "latitude": 7.05731,
      "state": "kogi stateKO",
      "geonameId": 7729969
   },
   {
      "name": "ijumu",
      "longitude": 5.95614,
      "latitude": 7.84878,
      "state": "kogi stateKO",
      "geonameId": 7729971
   },
   {
      "name": "kabba/bunu",
      "longitude": 6.20336,
      "latitude": 8.06278,
      "state": "kogi stateKO",
      "geonameId": 7729972
   },
   {
      "name": "kogi",
      "longitude": 6.85709,
      "latitude": 8.14607,
      "state": "kogi stateKO",
      "geonameId": 8637555
   },
   {
      "name": "lokoja",
      "longitude": 6.56305,
      "latitude": 8.20488,
      "state": "kogi stateKO",
      "geonameId": 8637590
   },
   {
      "name": "mopa-muro",
      "longitude": 5.87847,
      "latitude": 8.10332,
      "state": "kogi stateKO",
      "geonameId": 7729974
   },
   {
      "name": "ofu",
      "longitude": 7.03817,
      "latitude": 7.30283,
      "state": "kogi stateKO",
      "geonameId": 7729975
   },
   {
      "name": "ogori/magongo",
      "longitude": 6.16355,
      "latitude": 7.46673,
      "state": "kogi stateKO",
      "geonameId": 8637963
   },
   {
      "name": "okehi",
      "longitude": 6.28543,
      "latitude": 7.68192,
      "state": "kogi stateKO",
      "geonameId": 7729976
   },
   {
      "name": "okene",
      "longitude": 6.21667,
      "latitude": 7.48333,
      "state": "kogi stateKO",
      "geonameId": 7701431
   },
   {
      "name": "olamaboro",
      "longitude": 7.52832,
      "latitude": 7.18689,
      "state": "kogi stateKO",
      "geonameId": 8637975
   },
   {
      "name": "omala",
      "longitude": 7.54098,
      "latitude": 7.79962,
      "state": "kogi stateKO",
      "geonameId": 7729979
   },
   {
      "name": "yagba east",
      "longitude": 5.76131,
      "latitude": 8.16411,
      "state": "kogi stateKO",
      "geonameId": 7729980
   },
   {
      "name": "yagba west",
      "longitude": 5.52748,
      "latitude": 8.29641,
      "state": "kogi stateKO",
      "geonameId": 7729981
   },
   {
      "name": "asa",
      "longitude": 4.426,
      "latitude": 8.43005,
      "state": "kwara stateKW",
      "geonameId": 7910330
   },
   {
      "name": "baruten",
      "longitude": 3.31607,
      "latitude": 9.26039,
      "state": "kwara stateKW",
      "geonameId": 7910331
   },
   {
      "name": "edu",
      "longitude": 5.21012,
      "latitude": 8.89181,
      "state": "kwara stateKW",
      "geonameId": 8635168
   },
   {
      "name": "ekiti",
      "longitude": 5.32035,
      "latitude": 8.11799,
      "state": "kwara stateKW",
      "geonameId": 8635167
   },
   {
      "name": "ifelodun",
      "longitude": 5.01072,
      "latitude": 8.55971,
      "state": "kwara stateKW",
      "geonameId": 7871293
   },
   {
      "name": "ilorin east",
      "longitude": 4.72827,
      "latitude": 8.5712,
      "state": "kwara stateKW",
      "geonameId": 8635064
   },
   {
      "name": "ilorin south",
      "longitude": 4.68018,
      "latitude": 8.44156,
      "state": "kwara stateKW",
      "geonameId": 8635162
   },
   {
      "name": "ilorin west",
      "longitude": 4.5235,
      "latitude": 8.48752,
      "state": "kwara stateKW",
      "geonameId": 7873900
   },
   {
      "name": "irepodun",
      "longitude": 4.91294,
      "latitude": 8.14654,
      "state": "kwara stateKW",
      "geonameId": 8635164
   },
   {
      "name": "isin",
      "longitude": 5.05356,
      "latitude": 8.26747,
      "state": "kwara stateKW",
      "geonameId": 8635165
   },
   {
      "name": "kaiama",
      "longitude": 4.15994,
      "latitude": 9.45342,
      "state": "kwara stateKW",
      "geonameId": 7873912
   },
   {
      "name": "moro",
      "longitude": 4.55671,
      "latitude": 8.84493,
      "state": "kwara stateKW",
      "geonameId": 8635063
   },
   {
      "name": "offa",
      "longitude": 4.68796,
      "latitude": 8.14279,
      "state": "kwara stateKW",
      "geonameId": 8635163
   },
   {
      "name": "oke ero",
      "longitude": 5.23449,
      "latitude": 8.16997,
      "state": "kwara stateKW",
      "geonameId": 8635166
   },
   {
      "name": "oyun",
      "longitude": 4.65212,
      "latitude": 8.16827,
      "state": "kwara stateKW",
      "geonameId": 7873899
   },
   {
      "name": "pategi",
      "longitude": 5.75,
      "latitude": 8.73,
      "state": "kwara stateKW",
      "geonameId": 7910332
   },
   {
      "name": "agege",
      "longitude": 3.30757,
      "latitude": 6.63937,
      "state": "lagosLA",
      "geonameId": 7873904
   },
   {
      "name": "ajeromi/ifelodun",
      "longitude": 3.3472,
      "latitude": 6.44939,
      "state": "lagosLA",
      "geonameId": 7932527
   },
   {
      "name": "alimosho",
      "longitude": 3.24852,
      "latitude": 6.5889,
      "state": "lagosLA",
      "geonameId": 7910345
   },
   {
      "name": "amuwo odofin",
      "longitude": 3.263,
      "latitude": 6.472,
      "state": "lagosLA",
      "geonameId": 7871294
   },
   {
      "name": "apapa",
      "longitude": 3.3493,
      "latitude": 6.42926,
      "state": "lagosLA",
      "geonameId": 7871290
   },
   {
      "name": "badagry",
      "longitude": 2.90245,
      "latitude": 6.43813,
      "state": "lagosLA",
      "geonameId": 7871299
   },
   {
      "name": "epe",
      "longitude": 3.99122,
      "latitude": 6.55727,
      "state": "lagosLA",
      "geonameId": 7910347
   },
   {
      "name": "eti osa",
      "longitude": 3.55015,
      "latitude": 6.44154,
      "state": "lagosLA",
      "geonameId": 7932498
   },
   {
      "name": "ibeju lekki",
      "longitude": 3.94318,
      "latitude": 6.4545,
      "state": "lagosLA",
      "geonameId": 7910348
   },
   {
      "name": "ifako-ijaiye local government area",
      "longitude": 3.30279,
      "latitude": 6.66503,
      "state": "lagosLA",
      "geonameId": 9485475
   },
   {
      "name": "ifako/ijaye",
      "longitude": 3.31231,
      "latitude": 6.65822,
      "state": "lagosLA",
      "geonameId": 7910346
   },
   {
      "name": "ikeja",
      "longitude": 3.34259,
      "latitude": 6.61857,
      "state": "lagosLA",
      "geonameId": 7910350
   },
   {
      "name": "ikorodu",
      "longitude": 3.55167,
      "latitude": 6.62641,
      "state": "lagosLA",
      "geonameId": 7644922
   },
   {
      "name": "kosofe",
      "longitude": 3.409,
      "latitude": 6.601,
      "state": "lagosLA",
      "geonameId": 7871279
   },
   {
      "name": "lagos island local government area",
      "longitude": 3.39037,
      "latitude": 6.46113,
      "state": "lagosLA",
      "geonameId": 9485476
   },
   {
      "name": "lagos mainland local government area",
      "longitude": 3.37292,
      "latitude": 6.47941,
      "state": "lagosLA",
      "geonameId": 9485474
   },
   {
      "name": "mushin",
      "longitude": 3.36305,
      "latitude": 6.52641,
      "state": "lagosLA",
      "geonameId": 7910351
   },
   {
      "name": "ojo",
      "longitude": 3.14827,
      "latitude": 6.46508,
      "state": "lagosLA",
      "geonameId": 7871297
   },
   {
      "name": "oshodi-isolo local government area",
      "longitude": 3.33531,
      "latitude": 6.56068,
      "state": "lagosLA",
      "geonameId": 9485473
   },
   {
      "name": "oshodi/isolo",
      "longitude": 3.30242,
      "latitude": 6.55923,
      "state": "lagosLA",
      "geonameId": 7910352
   },
   {
      "name": "shomolu",
      "longitude": 3.3695,
      "latitude": 6.55606,
      "state": "lagosLA",
      "geonameId": 7871280
   },
   {
      "name": "surulere",
      "longitude": 3.34893,
      "latitude": 6.49167,
      "state": "lagosLA",
      "geonameId": 7932526
   },
   {
      "name": "akwanga",
      "longitude": 8.32701,
      "latitude": 8.99386,
      "state": "nasarawa stateNA",
      "geonameId": 7932036
   },
   {
      "name": "awe",
      "longitude": 9.1849,
      "latitude": 8.27456,
      "state": "nasarawa stateNA",
      "geonameId": 8635062
   },
   {
      "name": "doma",
      "longitude": 8.30466,
      "latitude": 8.20323,
      "state": "nasarawa stateNA",
      "geonameId": 8635061
   },
   {
      "name": "karu",
      "longitude": 7.76364,
      "latitude": 9.04694,
      "state": "nasarawa stateNA",
      "geonameId": 8635057
   },
   {
      "name": "keana",
      "longitude": 8.76829,
      "latitude": 8.16746,
      "state": "nasarawa stateNA",
      "geonameId": 7932058
   },
   {
      "name": "keffi",
      "longitude": 7.82725,
      "latitude": 8.83795,
      "state": "nasarawa stateNA",
      "geonameId": 8635056
   },
   {
      "name": "kokona",
      "longitude": 8.06111,
      "latitude": 8.85559,
      "state": "nasarawa stateNA",
      "geonameId": 8635058
   },
   {
      "name": "lafia",
      "longitude": 8.69959,
      "latitude": 8.64007,
      "state": "nasarawa stateNA",
      "geonameId": 7932056
   },
   {
      "name": "nasarawa",
      "longitude": 7.59744,
      "latitude": 8.26937,
      "state": "nasarawa stateNA",
      "geonameId": 7871272
   },
   {
      "name": "nasarawa egon",
      "longitude": 8.44035,
      "latitude": 8.74947,
      "state": "nasarawa stateNA",
      "geonameId": 8635059
   },
   {
      "name": "obi",
      "longitude": 8.72769,
      "latitude": 8.34738,
      "state": "nasarawa stateNA",
      "geonameId": 7932057
   },
   {
      "name": "toto",
      "longitude": 7.19827,
      "latitude": 8.2502,
      "state": "nasarawa stateNA",
      "geonameId": 8635055
   },
   {
      "name": "wamba",
      "longitude": 8.69459,
      "latitude": 8.98214,
      "state": "nasarawa stateNA",
      "geonameId": 8635060
   },
   {
      "name": "agaie",
      "longitude": 6.40817,
      "latitude": 8.93056,
      "state": "niger stateNI",
      "geonameId": 7729982
   },
   {
      "name": "agwara",
      "longitude": 4.53977,
      "latitude": 10.77476,
      "state": "niger stateNI",
      "geonameId": 7729983
   },
   {
      "name": "bida",
      "longitude": 5.98473,
      "latitude": 9.08269,
      "state": "niger stateNI",
      "geonameId": 7729985
   },
   {
      "name": "borgu",
      "longitude": 4.1626,
      "latitude": 10.37844,
      "state": "niger stateNI",
      "geonameId": 7729987
   },
   {
      "name": "bosso",
      "longitude": 6.36587,
      "latitude": 9.61463,
      "state": "niger stateNI",
      "geonameId": 8634919
   },
   {
      "name": "chanchaga",
      "longitude": 6.51419,
      "latitude": 9.60547,
      "state": "niger stateNI",
      "geonameId": 7729989
   },
   {
      "name": "edati",
      "longitude": 5.61823,
      "latitude": 9.0275,
      "state": "niger stateNI",
      "geonameId": 7729991
   },
   {
      "name": "gbako",
      "longitude": 5.98614,
      "latitude": 9.28456,
      "state": "niger stateNI",
      "geonameId": 7730015
   },
   {
      "name": "gurara",
      "longitude": 7.02318,
      "latitude": 9.32203,
      "state": "niger stateNI",
      "geonameId": 7730017
   },
   {
      "name": "katcha",
      "longitude": 6.23333,
      "latitude": 9.15,
      "state": "niger stateNI",
      "geonameId": 7701432
   },
   {
      "name": "kontagora",
      "longitude": 5.4795,
      "latitude": 10.45225,
      "state": "niger stateNI",
      "geonameId": 8634913
   },
   {
      "name": "lapai",
      "longitude": 6.67551,
      "latitude": 8.79818,
      "state": "niger stateNI",
      "geonameId": 8634957
   },
   {
      "name": "lavun",
      "longitude": 5.6833,
      "latitude": 9.27348,
      "state": "niger stateNI",
      "geonameId": 7730021
   },
   {
      "name": "magama",
      "longitude": 5.05,
      "latitude": 10.46667,
      "state": "niger stateNI",
      "geonameId": 7701433
   },
   {
      "name": "mariga",
      "longitude": 5.84038,
      "latitude": 10.69917,
      "state": "niger stateNI",
      "geonameId": 8634912
   },
   {
      "name": "mashegu",
      "longitude": 5.23385,
      "latitude": 9.92993,
      "state": "niger stateNI",
      "geonameId": 8634916
   },
   {
      "name": "mokwa",
      "longitude": 5.33333,
      "latitude": 9.2,
      "state": "niger stateNI",
      "geonameId": 7701434
   },
   {
      "name": "muya",
      "longitude": 7.01732,
      "latitude": 9.80982,
      "state": "niger stateNI",
      "geonameId": 7730026
   },
   {
      "name": "paikoro",
      "longitude": 6.85565,
      "latitude": 9.4681,
      "state": "niger stateNI",
      "geonameId": 7730027
   },
   {
      "name": "rafi",
      "longitude": 6.25333,
      "latitude": 10.18444,
      "state": "niger stateNI",
      "geonameId": 7701464
   },
   {
      "name": "rijau",
      "longitude": 5.18826,
      "latitude": 11.0993,
      "state": "niger stateNI",
      "geonameId": 8634809
   },
   {
      "name": "shiroro",
      "longitude": 6.68307,
      "latitude": 10.11543,
      "state": "niger stateNI",
      "geonameId": 8634914
   },
   {
      "name": "suleja",
      "longitude": 7.18864,
      "latitude": 9.21446,
      "state": "niger stateNI",
      "geonameId": 8634915
   },
   {
      "name": "tafa",
      "longitude": 7.23,
      "latitude": 9.232,
      "state": "niger stateNI",
      "geonameId": 7871248
   },
   {
      "name": "wushishi",
      "longitude": 5.93662,
      "latitude": 9.702,
      "state": "niger stateNI",
      "geonameId": 8634918
   },
   {
      "name": "abeokuta north",
      "longitude": 3.16845,
      "latitude": 7.23079,
      "state": "ogun stateOG",
      "geonameId": 8636329
   },
   {
      "name": "abeokuta south",
      "longitude": 3.35459,
      "latitude": 7.15425,
      "state": "ogun stateOG",
      "geonameId": 8636330
   },
   {
      "name": "ado odo/ota",
      "longitude": 3.08626,
      "latitude": 6.62366,
      "state": "ogun stateOG",
      "geonameId": 8636326
   },
   {
      "name": "egbado north",
      "longitude": 2.91795,
      "latitude": 7.14729,
      "state": "ogun stateOG",
      "geonameId": 8636323
   },
   {
      "name": "egbado south",
      "longitude": 2.96144,
      "latitude": 6.79763,
      "state": "ogun stateOG",
      "geonameId": 8636324
   },
   {
      "name": "ewekoro",
      "longitude": 3.19455,
      "latitude": 6.96115,
      "state": "ogun stateOG",
      "geonameId": 8636331
   },
   {
      "name": "ifo",
      "longitude": 3.25195,
      "latitude": 6.78197,
      "state": "ogun stateOG",
      "geonameId": 8636327
   },
   {
      "name": "ijebu east",
      "longitude": 4.258,
      "latitude": 6.805,
      "state": "ogun stateOG",
      "geonameId": 7873873
   },
   {
      "name": "ijebu north",
      "longitude": 3.97085,
      "latitude": 6.99551,
      "state": "ogun stateOG",
      "geonameId": 8636333
   },
   {
      "name": "ijebu north east",
      "longitude": 4.0226,
      "latitude": 6.88809,
      "state": "ogun stateOG",
      "geonameId": 8636334
   },
   {
      "name": "ijebu ode",
      "longitude": 3.92899,
      "latitude": 6.82065,
      "state": "ogun stateOG",
      "geonameId": 7871321
   },
   {
      "name": "ikenne",
      "longitude": 3.676,
      "latitude": 6.919,
      "state": "ogun stateOG",
      "geonameId": 7871303
   },
   {
      "name": "imeko afon",
      "longitude": 2.86402,
      "latitude": 7.66221,
      "state": "ogun stateOG",
      "geonameId": 8636322
   },
   {
      "name": "ipokia",
      "longitude": 2.81053,
      "latitude": 6.61801,
      "state": "ogun stateOG",
      "geonameId": 8636325
   },
   {
      "name": "obafemi owode",
      "longitude": 3.48404,
      "latitude": 6.96907,
      "state": "ogun stateOG",
      "geonameId": 7873905
   },
   {
      "name": "odeda",
      "longitude": 3.52029,
      "latitude": 7.29646,
      "state": "ogun stateOG",
      "geonameId": 8636328
   },
   {
      "name": "odogbolu",
      "longitude": 3.80511,
      "latitude": 6.78597,
      "state": "ogun stateOG",
      "geonameId": 7871304
   },
   {
      "name": "ogun waterside",
      "longitude": 4.38618,
      "latitude": 6.48449,
      "state": "ogun stateOG",
      "geonameId": 8636335
   },
   {
      "name": "remo north",
      "longitude": 3.72861,
      "latitude": 7.0029,
      "state": "ogun stateOG",
      "geonameId": 8636332
   },
   {
      "name": "shagamu",
      "longitude": 3.56833,
      "latitude": 6.79905,
      "state": "ogun stateOG",
      "geonameId": 7871278
   },
   {
      "name": "akoko north east",
      "longitude": 5.81022,
      "latitude": 7.52744,
      "state": "ondo stateON",
      "geonameId": 8636760
   },
   {
      "name": "akoko north west",
      "longitude": 5.79399,
      "latitude": 7.641,
      "state": "ondo stateON",
      "geonameId": 8636761
   },
   {
      "name": "akoko south east",
      "longitude": 5.91161,
      "latitude": 7.41794,
      "state": "ondo stateON",
      "geonameId": 8636759
   },
   {
      "name": "akoko south west",
      "longitude": 5.69463,
      "latitude": 7.39766,
      "state": "ondo stateON",
      "geonameId": 8636758
   },
   {
      "name": "akure north",
      "longitude": 5.31136,
      "latitude": 7.26382,
      "state": "ondo stateON",
      "geonameId": 8636755
   },
   {
      "name": "akure south",
      "longitude": 5.18766,
      "latitude": 7.20501,
      "state": "ondo stateON",
      "geonameId": 8636754
   },
   {
      "name": "ese odo",
      "longitude": 4.96459,
      "latitude": 6.21743,
      "state": "ondo stateON",
      "geonameId": 8636747
   },
   {
      "name": "idanre",
      "longitude": 5.209,
      "latitude": 6.986,
      "state": "ondo stateON",
      "geonameId": 7873876
   },
   {
      "name": "ifedore",
      "longitude": 5.08829,
      "latitude": 7.36318,
      "state": "ondo stateON",
      "geonameId": 8636753
   },
   {
      "name": "ilaje",
      "longitude": 4.76788,
      "latitude": 6.20323,
      "state": "ondo stateON",
      "geonameId": 8636746
   },
   {
      "name": "ile oluji/okeigbo",
      "longitude": 4.88753,
      "latitude": 7.27801,
      "state": "ondo stateON",
      "geonameId": 8636752
   },
   {
      "name": "irele",
      "longitude": 5.0092,
      "latitude": 6.53479,
      "state": "ondo stateON",
      "geonameId": 8636749
   },
   {
      "name": "odigbo",
      "longitude": 4.727,
      "latitude": 6.765,
      "state": "ondo stateON",
      "geonameId": 7873875
   },
   {
      "name": "okitipupa",
      "longitude": 4.69894,
      "latitude": 6.54797,
      "state": "ondo stateON",
      "geonameId": 8636748
   },
   {
      "name": "ondo east",
      "longitude": 4.96053,
      "latitude": 7.09145,
      "state": "ondo stateON",
      "geonameId": 8636751
   },
   {
      "name": "ondo west",
      "longitude": 4.74558,
      "latitude": 7.01642,
      "state": "ondo stateON",
      "geonameId": 8636750
   },
   {
      "name": "ose",
      "longitude": 5.7433,
      "latitude": 7.05495,
      "state": "ondo stateON",
      "geonameId": 8636757
   },
   {
      "name": "owo",
      "longitude": 5.58005,
      "latitude": 7.16648,
      "state": "ondo stateON",
      "geonameId": 8636756
   },
   {
      "name": "aiyedade",
      "longitude": 4.34913,
      "latitude": 7.33378,
      "state": "osun stateOS",
      "geonameId": 8636369
   },
   {
      "name": "aiyedire",
      "longitude": 4.23455,
      "latitude": 7.58118,
      "state": "osun stateOS",
      "geonameId": 8636368
   },
   {
      "name": "atakunmosa east",
      "longitude": 4.77562,
      "latitude": 7.45916,
      "state": "osun stateOS",
      "geonameId": 7730030
   },
   {
      "name": "atakunmosa west",
      "longitude": 4.67521,
      "latitude": 7.49206,
      "state": "osun stateOS",
      "geonameId": 7730042
   },
   {
      "name": "boluwaduro",
      "longitude": 4.81303,
      "latitude": 7.91891,
      "state": "osun stateOS",
      "geonameId": 7730051
   },
   {
      "name": "boripe",
      "longitude": 4.66946,
      "latitude": 7.85585,
      "state": "osun stateOS",
      "geonameId": 7730052
   },
   {
      "name": "ede north",
      "longitude": 4.50922,
      "latitude": 7.7069,
      "state": "osun stateOS",
      "geonameId": 7701466
   },
   {
      "name": "ede south",
      "longitude": 4.45762,
      "latitude": 7.65824,
      "state": "osun stateOS",
      "geonameId": 8636370
   },
   {
      "name": "egbedore",
      "longitude": 4.43333,
      "latitude": 7.81667,
      "state": "osun stateOS",
      "geonameId": 7701468
   },
   {
      "name": "ejigbo",
      "longitude": 4.28626,
      "latitude": 7.86711,
      "state": "osun stateOS",
      "geonameId": 8636366
   },
   {
      "name": "ife central",
      "longitude": 4.55933,
      "latitude": 7.47442,
      "state": "osun stateOS",
      "geonameId": 7701469
   },
   {
      "name": "ife east",
      "longitude": 4.60147,
      "latitude": 7.36534,
      "state": "osun stateOS",
      "geonameId": 7701471
   },
   {
      "name": "ife north",
      "longitude": 4.44748,
      "latitude": 7.26686,
      "state": "osun stateOS",
      "geonameId": 8636377
   },
   {
      "name": "ife south",
      "longitude": 4.6,
      "latitude": 7.2,
      "state": "osun stateOS",
      "geonameId": 7701472
   },
   {
      "name": "ifedayo",
      "longitude": 4.98892,
      "latitude": 7.97763,
      "state": "osun stateOS",
      "geonameId": 8636373
   },
   {
      "name": "ifelodun",
      "longitude": 4.66667,
      "latitude": 7.91667,
      "state": "osun stateOS",
      "geonameId": 7701474
   },
   {
      "name": "ila",
      "longitude": 4.9,
      "latitude": 8.01667,
      "state": "osun stateOS",
      "geonameId": 7701475
   },
   {
      "name": "ilesha east",
      "longitude": 4.7618,
      "latitude": 7.60146,
      "state": "osun stateOS",
      "geonameId": 8636376
   },
   {
      "name": "ilesha west",
      "longitude": 4.71922,
      "latitude": 7.64202,
      "state": "osun stateOS",
      "geonameId": 8636375
   },
   {
      "name": "irepodun",
      "longitude": 4.48333,
      "latitude": 7.83333,
      "state": "osun stateOS",
      "geonameId": 7701476
   },
   {
      "name": "irewole",
      "longitude": 4.21667,
      "latitude": 7.41667,
      "state": "osun stateOS",
      "geonameId": 7701477
   },
   {
      "name": "isokan",
      "longitude": 4.18333,
      "latitude": 7.3,
      "state": "osun stateOS",
      "geonameId": 7701478
   },
   {
      "name": "iwo",
      "longitude": 4.14127,
      "latitude": 7.67548,
      "state": "osun stateOS",
      "geonameId": 8636367
   },
   {
      "name": "obokun",
      "longitude": 4.76281,
      "latitude": 7.78701,
      "state": "osun stateOS",
      "geonameId": 8636374
   },
   {
      "name": "odo otin",
      "longitude": 4.7,
      "latitude": 8.01667,
      "state": "osun stateOS",
      "geonameId": 7701479
   },
   {
      "name": "ola oluwa",
      "longitude": 4.21667,
      "latitude": 7.78333,
      "state": "osun stateOS",
      "geonameId": 7701480
   },
   {
      "name": "olorunda",
      "longitude": 4.58333,
      "latitude": 7.86667,
      "state": "osun stateOS",
      "geonameId": 7701482
   },
   {
      "name": "oriade",
      "longitude": 4.86667,
      "latitude": 7.58333,
      "state": "osun stateOS",
      "geonameId": 7701483
   },
   {
      "name": "orolu",
      "longitude": 4.47283,
      "latitude": 7.90159,
      "state": "osun stateOS",
      "geonameId": 8636372
   },
   {
      "name": "osogbo",
      "longitude": 4.57625,
      "latitude": 7.75963,
      "state": "osun stateOS",
      "geonameId": 8636371
   },
   {
      "name": "afijio",
      "longitude": 3.86417,
      "latitude": 7.73793,
      "state": "oyo stateOY",
      "geonameId": 7873894
   },
   {
      "name": "akinyele",
      "longitude": 3.90609,
      "latitude": 7.56152,
      "state": "oyo stateOY",
      "geonameId": 7873893
   },
   {
      "name": "atiba",
      "longitude": 3.88691,
      "latitude": 8.26629,
      "state": "oyo stateOY",
      "geonameId": 8636067
   },
   {
      "name": "atisbo",
      "longitude": 3.24674,
      "latitude": 8.3698,
      "state": "oyo stateOY",
      "geonameId": 8636066
   },
   {
      "name": "egbeda",
      "longitude": 4.04522,
      "latitude": 7.38692,
      "state": "oyo stateOY",
      "geonameId": 8636320
   },
   {
      "name": "ibadan north",
      "longitude": 3.89011,
      "latitude": 7.40922,
      "state": "oyo stateOY",
      "geonameId": 7873892
   },
   {
      "name": "ibadan north east",
      "longitude": 3.92753,
      "latitude": 7.36919,
      "state": "oyo stateOY",
      "geonameId": 7873910
   },
   {
      "name": "ibadan north west",
      "longitude": 3.87967,
      "latitude": 7.39272,
      "state": "oyo stateOY",
      "geonameId": 8555718
   },
   {
      "name": "ibadan south east",
      "longitude": 3.90359,
      "latitude": 7.33437,
      "state": "oyo stateOY",
      "geonameId": 7873908
   },
   {
      "name": "ibadan south west",
      "longitude": 3.86551,
      "latitude": 7.35069,
      "state": "oyo stateOY",
      "geonameId": 7873907
   },
   {
      "name": "ibarapa central",
      "longitude": 3.26761,
      "latitude": 7.43737,
      "state": "oyo stateOY",
      "geonameId": 8636319
   },
   {
      "name": "ibarapa east",
      "longitude": 3.49207,
      "latitude": 7.60795,
      "state": "oyo stateOY",
      "geonameId": 7730054
   },
   {
      "name": "ibarapa north",
      "longitude": 3.15918,
      "latitude": 7.64615,
      "state": "oyo stateOY",
      "geonameId": 7730055
   },
   {
      "name": "ido",
      "longitude": 3.71186,
      "latitude": 7.50678,
      "state": "oyo stateOY",
      "geonameId": 7730057
   },
   {
      "name": "irepo",
      "longitude": 3.99445,
      "latitude": 8.90287,
      "state": "oyo stateOY",
      "geonameId": 7873911
   },
   {
      "name": "iseyin",
      "longitude": 3.54943,
      "latitude": 7.87401,
      "state": "oyo stateOY",
      "geonameId": 8636318
   },
   {
      "name": "itesiwaju",
      "longitude": 3.53029,
      "latitude": 8.20715,
      "state": "oyo stateOY",
      "geonameId": 8636070
   },
   {
      "name": "iwajowa",
      "longitude": 3.08333,
      "latitude": 8,
      "state": "oyo stateOY",
      "geonameId": 7701486
   },
   {
      "name": "kajola",
      "longitude": 3.35753,
      "latitude": 8.02639,
      "state": "oyo stateOY",
      "geonameId": 7730058
   },
   {
      "name": "lagelu",
      "longitude": 4.0469,
      "latitude": 7.49485,
      "state": "oyo stateOY",
      "geonameId": 7730059
   },
   {
      "name": "ogbomosho north",
      "longitude": 4.26441,
      "latitude": 8.1567,
      "state": "oyo stateOY",
      "geonameId": 8636068
   },
   {
      "name": "ogbomosho south",
      "longitude": 4.23658,
      "latitude": 8.0732,
      "state": "oyo stateOY",
      "geonameId": 8636321
   },
   {
      "name": "ogo oluwa",
      "longitude": 4.21483,
      "latitude": 7.99013,
      "state": "oyo stateOY",
      "geonameId": 8636069
   },
   {
      "name": "olorunsogo",
      "longitude": 4.13333,
      "latitude": 8.75,
      "state": "oyo stateOY",
      "geonameId": 7701488
   },
   {
      "name": "oluyole",
      "longitude": 3.86667,
      "latitude": 7.23333,
      "state": "oyo stateOY",
      "geonameId": 7701489
   },
   {
      "name": "ona ara",
      "longitude": 4.03333,
      "latitude": 7.28333,
      "state": "oyo stateOY",
      "geonameId": 7701491
   },